stop_id,stop_name,stop_lat,stop_lon 
1,"72路公交招呼站",22.3917538,113.5479328
2,"888街",22.28036715,113.5588095
3,"BP化工",21.99215995,113.2051633
4,"TOD小镇",22.2740116,113.5001305
5,"艾牧电子",22.2049761,113.31996865
6,"安骅汽车",22.3121769,113.4718234
7,"安基路东",22.04483225,113.37803645
8,"安基路口",22.0425023,113.3960246
9,"安基路西",22.0456021,113.34223625
10,"安居园",22.26988395,113.52565115
11,"安湾路口",22.05123475,113.3316567
12,"奥特美会所",22.2322073,113.51078655
13,"澳大横琴校区",22.13326675,113.53974875
14,"八甲",22.21595345,113.196981
15,"八闽商会",22.2447206,113.4950731
16,"八顷",22.30301505,113.3028343
17,"八十亩",22.36752465,113.20126795
18,"八一二连路口",22.0977203,113.30387505
19,"八一五连路口",22.08487695,113.3047107
20,"八一一连",22.08161785,113.30701785
21,"巴士公司",22.2768117,113.5266226
22,"白蕉工业园",22.2538858,113.338886
23,"白蕉街",22.216192,113.30230575
24,"白蕉旧镇府",22.2155424,113.30663475
25,"白蕉科技园",22.19761805,113.320831
26,"白蕉科技园南",22.19842625,113.31432185
27,"白蕉科技园中",22.200026,113.3180068
28,"白蕉食品厂",22.21878645,113.30097695
29,"白蕉长途站",22.2297303,113.30488409
30,"白蕉镇政府",22.2576222,113.3317654
31,"白蕉中心市场",22.2165318,113.310704
32,"白井电子",22.0388723,113.3151581
33,"白莲洞公园",22.24457703,113.55755653
34,"白莲新村",22.2508027,113.56224795
35,"白埔路口",22.35368047,113.58998413
36,"白沙(魅族)",22.37579205,113.56319035
37,"白沙坑",22.19682425,113.4611058
38,"白石(银石雅园)",22.2385776,113.53141085
39,"白石村",22.2434284,113.2843233
40,"白石东",22.2390247,113.28927575
41,"白石路口",22.23898467,113.2937361
42,"白石南(银石雅园南)",22.23478555,113.5313188
43,"白石西",22.246936,113.28113745
44,"白藤二路口",22.15135,113.35099685
45,"白藤二路西",22.1518718,113.3522813
46,"白藤二路中",22.1537927,113.35545575
47,"白藤湖",22.1819543,113.32378275
48,"白藤头",22.1481321,113.3541434
49,"白兔陶瓷",22.1956781,113.1438462
50,"百福汇超市",22.14049075,113.3372028
51,"百货公司",22.2797868,113.5729358
52,"办冲",22.3086831,113.2907091
53,"办冲一队",22.3111697,113.29895205
54,"半岛驿站公园",22.3653389,113.6206335
55,"宝吉路口",22.1660948,113.4976972
56,"宝莱特科技",22.3770898,113.55390705
57,"宝盛路中",22.1668587,113.4998732
58,"宝顺路",22.1653955,113.5033379
59,"保健院西门",22.2716292,113.55424245
60,"保利五月花",22.35531275,113.60251555
61,"保利香槟",22.13299375,113.36626905
62,"保税区北门",22.17622207,113.49246623
63,"报业大厦",22.2798661,113.540751
64,"北澳市场",22.22419525,113.28315955
65,"北车",22.16357525,113.13349795
66,"北村",22.0108205,113.23373775
67,"北大附校",22.39538185,113.6297034
68,"北大希望之星",22.1801628,113.520158
69,"北堤",22.2934003,113.5705094
70,"北卡",22.30933045,113.25956385
71,"北理工",22.3681842,113.5463328
72,"北理工南门",22.3591645,113.54151705
73,"北岭",22.23891295,113.5461049
74,"北七路北",21.983144,113.20990975
75,"北七路口",21.97954965,113.20638585
76,"北七路南",21.970566,113.20373765
77,"北七路中",21.97593715,113.2036661
78,"北山(华发商都)",22.22579735,113.5056364
79,"北山村",22.40070005,113.52501615
80,"北山工业区",22.2178644,113.5094938
81,"北师大(东侧站)",22.3540823,113.5391389
82,"北师大(西侧站)",22.3521771,113.5379882
83,"北师大附中",22.36896105,113.58103865
84,"北水",22.03895785,113.2204031
85,"北水旧村",22.04098245,113.2290576
86,"北水路口",22.0466405,113.21290485
87,"北水小学",22.0413951,113.2150774
88,"碧阳路口",21.9945854,113.2095532
89,"滨海楼",22.27400605,113.5607209
90,"伯牙道路口",22.12602785,113.5195367
91,"泊湾",22.1920459,113.46168705
92,"博世安保",22.0739973,113.34950095
93,"布洲",22.35762155,113.27201055
94,"草津公司",22.0713649,113.35227255
95,"草",22.16122415,113.2582701
96,"草路口",22.16368145,113.2567702
97,"草堂",22.04623205,113.3848258
98,"草堂市场",22.0455705,113.38817495
99,"草堂湾",22.04496025,113.3864932
100,"草围路",22.1911048,113.3466186
101,"昌平路北",22.2299144,113.5302078
102,"昌平路中",22.2246917,113.5345556
103,"超群电子",22.1538521,113.2177298
104,"超毅电子厂",22.1725246,113.2670343
105,"琛龙船厂",22.1550353,113.4737389
106,"成益",22.18844435,113.4619971
107,"成益新村",22.18525035,113.4623081
108,"成裕",22.2048461,113.30428825
109,"成裕市场",22.2021589,113.3081192
110,"成裕围",22.20292995,113.3067405
111,"诚丰怡园",22.28564485,113.517263
112,"城东家私城",22.2231082,113.29840005
113,"城轨明珠站",22.27146115,113.5102164
114,"城轨前山站",22.2374009,113.52056035
115,"城建总公司",22.06218525,113.36495705
116,"城南派出所",22.1517717,113.3563209
117,"城南市场",22.1553441,113.35801995
118,"城市广场",22.2837603,113.55191155
119,"城市阳台",22.2659509,113.5777615
120,"赤鱼头",21.9504882,113.26750395
121,"创新六路",22.3958004,113.5561777
122,"创新三路南",22.38899825,113.55102055
123,"创业北路东",22.1003306,113.27657465
124,"创业东路",22.09650015,113.28024925
125,"创业南路东",22.0974888,113.27737395
126,"创业南路中",22.0949768,113.2719656
127,"创业西路中",22.0935503,113.2671461
128,"创业中路口",22.0961167,113.2743569
129,"春花园东",22.04308865,113.3675996
130,"春花园中",22.0411128,113.3643448
131,"春泽名园",22.2272814,113.532177
132,"粗沙环",22.125749,113.53874395
133,"翠花苑",22.2634075,113.5240793
134,"翠景工业区",22.2550439,113.5150126
135,"翠屏路",22.26723845,113.51165915
136,"翠屏路口",22.2665335,113.5132796
137,"翠前小学",22.2718748,113.5196091
138,"翠湾",22.20771055,113.44809895
139,"翠湾(屏西五路)",22.2090691,113.4482342
140,"翠微",22.2595672,113.5144948
141,"翠微市场",22.2641248,113.5204379
142,"翠香东",22.287776,113.5712953
143,"翠香中",22.2852134,113.5656196
144,"寸草路口",22.1314216,113.3624213
145,"大成兔场",22.29316165,113.30799515
146,"大赤坎东",22.27767365,113.23386535
147,"大赤坎东(415路)",22.2773086,113.2334768
148,"大赤坎西",22.27733675,113.22808345
149,"大冲村口",22.11783735,113.16055765
150,"大飞沙",21.9381457,113.2722221
151,"大果园",22.392422,113.5069914
152,"大海环",22.0844566,113.2119985
153,"大海环二队",22.0781822,113.2195036
154,"大濠冲",22.2221043,113.16069815
155,"大濠冲村口",22.2152011,113.15306735
156,"大濠冲路口",22.21408492,113.15798783
157,"大虎",22.08561185,113.13606015
158,"大虎八队",22.0852987,113.12916965
159,"大虎市场",22.08852535,113.13571025
160,"大虎市场西",22.08858615,113.13191215
161,"大虎四队",22.0850408,113.12136435
162,"大虎五队",22.0876884,113.12039525
163,"大环",22.0901428,113.27628367
164,"大环村",22.29037875,113.2042217
165,"大黄杨",22.2617343,113.26119835
166,"大镜山",22.2873324,113.5549279
167,"大林",22.0692204,113.29315265
168,"大林居委会",22.0697088,113.29066605
169,"大林三连",22.06797785,113.29603485
170,"大林湾",22.06546895,113.3013564
171,"大林湾东",22.0671333,113.3080829
172,"大沙场",22.3402479,113.2157069
173,"大胜",22.3165614,113.20347265
174,"大石鼓",22.2973486,113.30371175
175,"大托北",22.26683415,113.2683539
176,"大托村",22.2604337,113.2712298
177,"大托村口",22.2615061,113.2703864
178,"大托南",22.2557532,113.2723688
179,"大托市场",22.2615407,113.2741582
180,"大洋山",22.2028984,113.16358965
181,"党校",22.28818515,113.5584274
182,"导航台",22.01326245,113.38731
183,"得佳电器",22.3753829,113.52127675
184,"得米公司",22.05315515,113.21934795
185,"德昌盛景",22.1612892,113.34182985
186,"德豪润达",22.37369885,113.54904065
187,"灯笼",22.2248515,113.35743275
188,"灯笼路口",22.177252,113.3900164
189,"灯笼沙",22.2187581,113.36178225
190,"灯笼中心小学",22.20390725,113.37319215
191,"灯三",22.20194605,113.37461325
192,"灯三头",22.2122258,113.3666787
193,"灯一",22.2321567,113.35218635
194,"迪山实业",22.0919948,113.1639836
195,"第二人民医院",22.2251279,113.54233285
196,"电厂路口",21.99297025,113.19010595
197,"电厂一路口",21.97975345,113.1780716
198,"电视台北门",22.2810691,113.54502685
199,"叠石",22.32912105,113.59753195
200,"定家湾",22.0593761,113.3338222
201,"定家湾南",22.05755855,113.33282575
202,"定湾九路",22.0345792,113.30820135
203,"定湾七路",22.04006175,113.3111768
204,"东澳村(新堂路)",22.1591787,113.23398515
205,"东澳村(珠峰大道)",22.1577092,113.2349392
206,"东澳西",22.1617049,113.23144495
207,"东方高尔夫",22.1411813,113.4764533
208,"东方威尼斯",22.1705951,113.33325635
209,"东风",22.1870551,113.29305605
210,"东风北",22.1892153,113.2901201
211,"东风二队",22.0667013,113.1931379
212,"东风街",22.17643755,113.47094425
213,"东风街东",22.1805826,113.4748196
214,"东风六队",22.06298715,113.18594125
215,"东风南(遵医五院)",22.16967325,113.29683735
216,"东风三队",22.0770277,113.20005445
217,"东风四队",22.0692633,113.1957842
218,"东风五队",22.06392345,113.18931435
219,"东风一队",22.07281605,113.19839175
220,"东咀",22.07914835,113.3848056
221,"东坑",22.30902985,113.51896025
222,"东坑公园",22.30232015,113.5163277
223,"东坑市场",22.30668335,113.517634
224,"东坑西",22.30544415,113.5153522
225,"东坑新村",22.30040785,113.51600155
226,"东桥",22.2203375,113.5157757
227,"东桥工业区",22.2247498,113.5141219
228,"东升桥",22.0346806,113.3204662
229,"东围",22.2360503,113.30933515
230,"东围北",22.2456844,113.3011279
231,"东兴",22.217638,113.20892935
232,"东洋科美",22.1615807,113.1339295
233,"都会道",22.1562922,113.5319597
234,"斗门财所",22.24068535,113.19189575
235,"斗门村",22.2284459,113.1962711
236,"斗门大道口",22.2150182,113.18547515
237,"斗门地税局",22.18385245,113.3080263
238,"斗门妇幼保健院",22.22735935,113.2955903
239,"斗门港",22.2720867,113.32624465
240,"斗门供电局",22.20812075,113.29277465
241,"斗门行政中心",22.1926006,113.3109521
242,"斗门检察院",22.1795773,113.3051854
243,"斗门交通局",22.2093584,113.29264935
244,"斗门一中",22.22427445,113.2519547
245,"斗门一中(X981)",22.2238997,113.2524455
246,"斗门镇",22.2356601,113.19199495
247,"斗门镇交警",22.22616425,113.1897599
248,"斗门镇卫生院",22.2339878,113.1921084
249,"斗门中心小学",22.24320915,113.19490895
250,"斗门装饰建材",22.227312,113.3131633
251,"度假村",22.2432855,113.5774495
252,"渡假村",22.2434347,113.577146
253,"鳄鱼岛",22.1854652,113.32081735
254,"二号闸",22.1135399,113.37131965
255,"二间",22.1839648,113.45219055
256,"二龙",22.3919271,113.16904185
257,"二中",22.27323015,113.5688074
258,"番怡路口",22.1298751,113.33018525
259,"方正",22.1445679,113.1526138
260,"飞沙",21.9218243,113.2729481
261,"翡翠制衣",22.00695225,113.18628955
262,"丰华路东",22.2340104,113.5081678
263,"丰华路西",22.2325124,113.5045232
264,"风水塘广场",22.05401785,113.3531854
265,"凤凰北",22.28994845,113.56613405
266,"凤鸣市场",22.0556093,113.35560245
267,"佛径",22.3818767,113.4999139
268,"佛径村口",22.3805682,113.5026386
269,"氟特科技",22.09303295,113.28191495
270,"福石",22.2418594,113.5036248
271,"福溪",22.29105,113.50669035
272,"福溪工业区",22.2947678,113.50660945
273,"福新",22.18245745,113.291604
274,"福永路东",22.296225,113.5037383
275,"富红苑",22.1489454,113.35197955
276,"富康花园",22.2750335,113.5250854
277,"富强路中",22.19367345,113.1422312
278,"盖山",22.3068934,113.2668156
279,"干东村口",22.16508645,113.2251861
280,"干南工业区",22.145585,113.225909
281,"干南南路",22.1537687,113.22524
282,"干务饼厂",22.163003,113.21917045
283,"干务行政中心",22.1610661,113.2275635
284,"干务街口",22.1618023,113.2220406
285,"干务敬老院",22.15887235,113.2123682
286,"干务奶牛场",22.17493135,113.16234495
287,"干务牌坊",22.1551159,113.22461325
288,"干务糖厂",22.15740795,113.21037925
289,"干务卫生院",22.1614648,113.21569975
290,"干务消防队",22.1510052,113.1973124
291,"干务中心小学",22.1651657,113.2270899
292,"干西农场",22.1055531,113.215879
293,"钢铁厂西门",21.9615438,113.1882285
294,"港澳大道路口",22.1421374,113.5389673
295,"港昌南",22.2204239,113.53482185
296,"港昌中",22.2302372,113.5275131
297,"港二路",22.2293232,113.5273348
298,"港三路",22.2259025,113.528636
299,"港务集团路口",21.9472207,113.2370913
300,"港一路",22.2329497,113.526454
301,"港珠澳大桥项目部",22.3772535,113.6029775
302,"高级技校",22.25495165,113.56838695
303,"高栏港大厦",21.9796731,113.2032935
304,"高栏货柜码头",21.93998555,113.23349915
305,"高栏煤场",21.94458385,113.23602855
306,"高新区人民医院",22.3830484,113.5327267
307,"格力电器",22.2378798,113.4923797
308,"格力海岸",22.3513944,113.6120293
309,"耕管",22.3714422,113.20141065
310,"工业大道北",22.23084795,113.27547615
311,"工业大道中",22.22688345,113.28060305
312,"公安村",22.2865564,113.51357425
313,"公安村西",22.2853687,113.51174825
314,"公积金中心",22.27150755,113.5742169
315,"公交柏宁",22.22036575,113.4870084
316,"公交花园",22.2740178,113.50750155
317,"公交临时站(前山小学)",22.2471042,113.5218228
318,"公交新村",22.27017865,113.54408235
319,"公交信禾物流",22.2103391,113.45327695
320,"公交招呼站(桃花源)",22.31318825,113.57377505
321,"公交招呼站1",22.12239807,113.45417038
322,"公交招呼站2",22.06597204,113.36525062
323,"公交招呼站3",22.02420948,113.45021155
324,"公交招呼站4",22.1309942,113.4604669
325,"公爵教练场",22.24200695,113.31373585
326,"拱北",22.2248065,113.5480212
327,"拱北分站",22.2225062,113.5484685
328,"拱北工商分局",22.2259902,113.53076385
329,"拱北口岸",22.2198394,113.5487297
330,"供水总公司",22.23343075,113.53505575
331,"古元美术馆",22.2859139,113.54784315
332,"观澳平台",22.2234122,113.55498215
333,"官冲",22.27846815,113.2213409
334,"官塘",22.3810147,113.5476334
335,"官塘三村",22.37812615,113.5307782
336,"光大国贸",22.2584298,113.5776548
337,"光联科学园",22.17337575,113.49535125
338,"光明村口",22.34843975,113.22652485
339,"光明街",22.2759714,113.5658177
340,"广安路东",22.13795795,113.34712575
341,"广安路西",22.1397932,113.3395881
342,"广昌",22.2050534,113.4430081
343,"广发",22.1116455,113.29047995
344,"广发东",22.1131485,113.2891001
345,"广发西",22.1215096,113.2792935
346,"广发中",22.1175497,113.2851161
347,"广丰",22.36084965,113.2015375
348,"广金公司",22.04906275,113.32806155
349,"广立风电",22.1672271,113.1335738
350,"广隆围",22.2544132,113.2937214
351,"广茂路口",22.0936217,113.2371821
352,"广生",22.21470445,113.4673277
353,"广益",22.1172053,113.2694095
354,"规划二路口",22.0993759,113.29569655
355,"贵头",22.2240375,113.26280715
356,"桂风道路口",22.14532015,113.4869072
357,"桂花北",22.23747115,113.54076185
358,"桂花中",22.2323804,113.5424637
359,"国地税服务厅",22.1213855,113.36017035
360,"国际会展中心",22.17681755,113.5178699
361,"国际赛车场",22.37563525,113.5590503
362,"国际网球中心",22.1266484,113.53100565
363,"国佳新材",22.030051,113.3092432
364,"国佳药厂",22.0276935,113.3090252
365,"国贸展示中心",22.16934575,113.50466675
366,"国寿大厦",22.2227985,113.5398112
367,"国土资源局",22.24816675,113.5616715
368,"海岸生活区",22.39699765,113.55062495
369,"海滨公园",22.26443284,113.57665008
370,"海滨南",22.25671035,113.57835975
371,"海滨泳场",22.25913585,113.5849718
372,"海澄工业区",22.03153225,113.39091865
373,"海工大桥北",22.0041388,113.16184525
374,"海工二路口",21.98985945,113.1762731
375,"海虹总站",22.2957669,113.5685203
376,"海华小学",22.0706832,113.3795636
377,"海龙生物",22.29391765,113.3156625
378,"海纳石鸣苑",22.2558035,113.52020355
379,"海泉湾生活二区",22.07584705,113.11357815
380,"海泉湾生活一区",22.0795494,113.11481075
381,"海荣新村",22.2336027,113.52469475
382,"海天公园东",22.3016229,113.5738545
383,"海湾大酒店",22.232564,113.5602037
384,"海怡湾畔",22.3719578,113.5859289
385,"海怡湾畔 (haiyi wanpan)",22.3711343,113.5872915
386,"海怡湾畔南门",22.3681197,113.58604525
387,"海愉半岛(公交招呼站)",22.2381338,113.58186945
388,"海源码头",22.2437701,113.3452918
389,"海洲路口",22.25225835,113.5876556
390,"汉格锂电公司",22.109699,113.1978196
391,"汉坑村口",22.21550955,113.19330075
392,"瀚林苑",22.24559535,113.52273225
393,"行政服务中心",22.2797433,113.5344635
394,"杭萧钢构(X582)",22.1521014,113.21019955
395,"杭萧钢构(珠峰大道)",22.15276375,113.2095501
396,"航空新城",22.11923843,113.3652531
397,"航展馆",22.02350205,113.3823467
398,"濠冲路口",22.231417,113.1884544
399,"禾丰",22.36045475,113.27019015
400,"禾丰尾",22.36341645,113.26851
401,"合罗山",22.2319455,113.53904455
402,"和平市场",22.3019849,113.4825146
403,"河排",22.2174609,113.476513
404,"河头埔",22.4077592,113.52714405
405,"荷包岛客运码头",21.9210661,113.2176001
406,"荷包岛路口",21.9251549,113.221324
407,"鹤咀",22.3403486,113.2777452
408,"鹤洲北",22.15695695,113.3670066
409,"鹤洲东",22.16863895,113.3773224
410,"恒辉路口",22.03511775,113.31674655
411,"恒利工业区北门",22.1732518,113.4859005
412,"恒利工业园",22.0243079,113.22083245
413,"恒利工业园南门",22.1700391,113.4848789
414,"恒隆学校",22.26778345,113.52012685
415,"恒雅名园",22.2774514,113.50928645
416,"横坑口",22.33414745,113.2000064
417,"横琴",22.1157709,113.5457157
418,"横琴大道西",22.1150791,113.4762397
419,"横琴大道中",22.1212876,113.5044488
420,"横琴大桥南",22.15439015,113.5184864
421,"横琴金融基地",22.15211455,113.5325062
422,"横琴客运码头",22.1157705,113.54618975
423,"横琴口岸",22.1438259,113.5456557
424,"横琴口岸广场",22.1385247,113.5393731
425,"横琴口岸西",22.14396485,113.5360329
426,"横琴苗圃",22.1389099,113.47057065
427,"横琴湾酒店",22.1020022,113.5394152
428,"横琴新家园",22.1283011,113.53997865
429,"横琴中学",22.1263839,113.5266318
430,"横山",22.32006605,113.2018916
431,"横山红砖场",22.3120787,113.20703225
432,"横山市场",22.32474195,113.20178515
433,"横山中学",22.31373035,113.20575415
434,"横石基",22.00943465,113.30700435
435,"横石基路口",22.0084524,113.31056685
436,"红灯",22.104758,113.30727045
437,"红灯(X589)",22.1051315,113.3061938
438,"红灯四连",22.11799835,113.31136735
439,"红灯小学",22.11015345,113.3067218
440,"红东",22.1704597,113.4574389
441,"红旗大道",22.113399,113.30797105
442,"红旗客运站",22.14029255,113.33859785
443,"红旗糖厂",22.12893735,113.320714
444,"红旗医院",22.14609565,113.34699885
445,"红旗中心广场",22.13665805,113.3378717
446,"红旗中学",22.14431925,113.34314055
447,"红旗砖厂",22.0748663,113.28008755
448,"红山(仁恒星园)",22.2705511,113.5310574
449,"红山(仁恒星园) bus no : 68,K2",22.2709399,113.5311364
450,"红山北",22.2738153,113.53012345
451,"红山路南",22.2733956,113.5356436
452,"红山修理厂",22.26482065,113.5319248
453,"红生",22.17951325,113.46293335
454,"红土园",21.94171625,113.24325425
455,"宏利药业",22.3776244,113.5132187
456,"泓利织带",22.14692035,113.16904655
457,"虹晖二路西",22.12290595,113.3230681
458,"虹晖二路中",22.1296413,113.3318496
459,"虹桥四路",22.2086212,113.3219616
460,"虹桥四路口",22.2082214,113.3229702
461,"虹阳路北",22.0796823,113.37325985
462,"虹阳路南",22.0660855,113.38822235
463,"洪湾",22.1945615,113.45814725
464,"洪湾电厂",22.17644265,113.46784205
465,"洪湾港",22.1688057,113.4573325
466,"洪湾派出所",22.18280715,113.46254595
467,"鸿景花园",22.20254675,113.5279833
468,"后环路口",22.36935955,113.5981729
469,"厚朴道南",22.1276555,113.46232295
470,"厚朴道中",22.1333675,113.4590295
471,"胡湾里",22.27163995,113.5645618
472,"湖东二号电排",22.17824975,113.36859985
473,"湖东六连",22.1869886,113.37186755
474,"湖东七连",22.17709195,113.35772705
475,"湖东五连",22.17141645,113.3622178
476,"湖东五连路口",22.16781965,113.36453635
477,"湖东一连",22.180236,113.3552105
478,"湖东直属连",22.19299925,113.3697929
479,"湖心路口",22.14736585,113.3600099
480,"虎山村口",22.1453894,113.158149
481,"虎山东",22.1465246,113.1661525
482,"虎山居委会",22.13976495,113.1576015
483,"虎山南",22.1353474,113.1567681
484,"花果山",22.3646961,113.59147565
485,"华昌路口",22.3643065,113.496451
486,"华翠豪庭",22.26862805,113.5358282
487,"华发国际花园",22.21618985,113.53485285
488,"华发世纪城",22.2133695,113.52234145
489,"华发水岸",22.1952772,113.4256577
490,"华发四季",22.285319,113.5274293
491,"华发蔚蓝堡",22.3747182,113.60302925
492,"华发新城",22.2287644,113.51217855
493,"华丰",22.1014507,113.17246265
494,"华谷电机",22.0785112,113.3685078
495,"华冠工业园",22.3832843,113.51909805
496,"华海中",22.2907532,113.5701641
497,"华景花园",22.24364335,113.57056955
498,"华骏大酒店",22.2204877,113.5377155
499,"华平路口",22.2245444,113.5396685
500,"华侨宾馆",22.2334283,113.5468355
501,"华荣路口",22.0448292,113.3683216
502,"华阳路东",22.0765389,113.3898478
503,"华阳路中",22.0746981,113.3865761
504,"华宇金属",22.0326888,113.31155103
505,"华子石东",22.29418375,113.5675232
506,"华子石西",22.29107035,113.56402865
507,"化工专区",22.01415983,113.19409797
508,"环岛北路东",22.1542187,113.51402335
509,"环岛北路西",22.1350303,113.46037225
510,"环岛北路中",22.1429807,113.4811346
511,"环岛东路南",22.1211166,113.543966
512,"环岛东路中",22.1497544,113.5383532
513,"环岛西路口",21.9245749,113.2204579
514,"环仔角",22.01489325,113.30128425
515,"黄家",22.22158685,113.31338855
516,"黄金村口",22.16129485,113.2642516
517,"黄绿背(亿邦制药)",22.07077845,113.38739635
518,"黄杨大道东",22.2328195,113.27150215
519,"黄杨工业区",22.23914225,113.27151875
520,"会同",22.35830565,113.51034305
521,"会同工业区",22.35422055,113.5112653
522,"会同路口",22.37365575,113.5149156
523,"惠景慧园",22.39736025,113.546963
524,"惠威科技(小林东成路口)",22.10233625,113.3020036
525,"伙工殿大厦",22.2439325,113.5611972
526,"机场北路口",22.11368035,113.32413955
527,"机场北路南",22.060617,113.35412735
528,"机场公安分局",22.0142144,113.37042725
529,"鸡山",22.3405075,113.5890174
530,"鸡山南",22.33732925,113.5903435
531,"鸡啼桥东",22.08769995,113.27047525
532,"鸡嘴路口",22.1629075,113.26987635
533,"基石公司",22.27514145,113.25663155
534,"吉大",22.25421175,113.57115545
535,"吉大水库",22.25777085,113.56114195
536,"吉利围新路",22.2003793,113.34465465
537,"吉林大学东门",22.0498153,113.4021165
538,"吉林大学南门",22.04480815,113.39014925
539,"吉柠北",22.2638336,113.54949335
540,"吉石路口",22.2438495,113.5657244
541,"吉湾",22.3635282,113.23041535
542,"暨大北门",22.2558787,113.5315201
543,"暨南大学",22.25284885,113.52612215
544,"嘉豪园",22.2208298,113.5329588
545,"嘉美公司",22.06896345,113.3512358
546,"尖峰",22.1968074,113.3017643
547,"尖峰花园",22.2070775,113.2950722
548,"尖峰桥东",22.18878355,113.3190347
549,"尖峰桥西",22.18691275,113.31012095
550,"尖峰山",22.19660555,113.30725375
551,"尖峰水塘",22.1924885,113.2992889
552,"坚士制锁",22.19346175,113.1405962
553,"建宏陶瓷厂",22.22893205,113.17919825
554,"建业三路口",22.2422071,113.5565483
555,"建业一路",22.245695,113.5628713
556,"健帆生物",22.39488695,113.5446436
557,"健民路北",22.29258035,113.5149643
558,"鉴隆玩具",22.17114605,113.4738667
559,"江龙船舶",22.0748014,113.24689055
560,"江南岸",22.175991,113.3287965
561,"交行大厦",22.2505377,113.57389105
562,"交警支队",22.2794793,113.5126258
563,"教育桥",22.05063225,113.340296
564,"杰赛科技",22.1489031,113.1353354
565,"杰腾造船",22.08110345,113.2561718
566,"界涌",22.3077991,113.4765778
567,"界涌工业区",22.3063157,113.4785935
568,"金碧丽江",22.23281705,113.3068479
569,"金城路口",22.1269991,113.3376459
570,"金岛路东",22.07677285,113.3823072
571,"金岛路口",22.07689355,113.3796827
572,"金地门道",22.1597618,113.47389255
573,"金鼎",22.3850511,113.5311098
574,"金鼎市场",22.3832587,113.5384469
575,"金鼎中学",22.3758115,113.525183
576,"金鼎猪场(公交招呼站)",22.367801,113.5117327
577,"金都大厦",22.07411435,113.37950605
578,"金二路北",22.13184695,113.35971345
579,"金二路南",22.12207915,113.36467515
580,"金二路中",22.12582305,113.36372725
581,"金果湾",22.0999216,113.33323675
582,"金海岸派出所",22.0787792,113.3767783
583,"金海岸市场",22.072038,113.3819955
584,"金海岸市场东",22.07225745,113.3833831
585,"金海岸中学",22.0709163,113.3761818
586,"金河大道东",22.1175153,113.3670488
587,"金湖大道东",22.132883,113.3643068
588,"金桦花园",22.27763525,113.53827435
589,"金汇国际广场",22.13650615,113.5059076
590,"金鸡路西",22.2366636,113.4813749
591,"金鸡湾",22.393163,113.62722115
592,"金嘉翼公司",22.21530935,113.16450885
593,"金龙花园",22.0674983,113.37892675
594,"金龙新村",22.0192312,113.2130163
595,"金苹果游乐园",22.4009616,113.6396947
596,"金沙湾豪庭",22.0685529,113.37372035
597,"金山大道",22.12332295,113.36184755
598,"金山花园",22.0938843,113.2841925
599,"金山软件(高新总部基地)",22.3524958,113.5947277
600,"金山市场",22.22648025,113.30184445
601,"金台寺",22.2276871,113.2217142
602,"金台寺路口",22.21763565,113.21336125
603,"金台寺外山门",22.22431945,113.2131222
604,"金泰",22.1690749,113.26596935
605,"金湾服务大厅",22.1370453,113.3599424
606,"金湾高尔夫",22.102896,113.3740636
607,"金湾楼",22.1959665,113.29295475
608,"金湾市场",22.1957813,113.29109075
609,"金星花园",22.2249521,113.19791025
610,"金园三路口",22.38846655,113.50901955
611,"金竹社区",22.0522315,113.33699525
612,"锦澳雅苑",22.21498575,113.27553695
613,"进成公司",22.20885145,113.44391185
614,"京华假日湾",22.09554565,113.1681688
615,"京师家园",22.35601255,113.5398247
616,"精特机电",22.10387695,113.2730239
617,"精钰科技",22.0650694,113.352518
618,"井岸大厦",22.21617075,113.29240995
619,"井岸三小",22.22092625,113.2831361
620,"井岸镇府",22.20233515,113.29353025
621,"井湾路北",22.2113938,113.29326495
622,"井湾路中",22.206744,113.29288115
623,"景峰广场",22.3817771,113.52550125
624,"景乐南",22.252671,113.574095
625,"景裕豪苑",22.25583385,113.32724015
626,"警察学校",22.2697303,113.5595328
627,"九顷六队",22.09108485,113.16415415
628,"九顷七队",22.0840199,113.1644403
629,"九围宿舍",22.16386525,113.3630257
630,"九洲城",22.25926544,113.57414071
631,"九洲港",22.24330165,113.58628265
632,"九洲花园",22.2441709,113.5825325
633,"九洲湾",22.2465509,113.5894176
634,"九洲新村",22.24846285,113.58769685
635,"九洲驿站(公交招呼站)",22.2357832,113.58459355
636,"巨海科技",22.2208489,113.1847128
637,"聚能精密",22.1183877,113.3175492
638,"军港",22.37194605,113.6098878
639,"军建小学",22.1950501,113.3682456
640,"均昌(奔图科技)",22.20191455,113.43716625
641,"君怡花园",22.2573707,113.581805
642,"骏德电业",22.14763215,113.1740232
643,"开新二道路口",22.11779905,113.4900872
644,"开新六道路口",22.115863,113.4773915
645,"开新三道路口",22.1171002,113.48566645
646,"康乐保公司",22.1676049,113.4867779
647,"康益花园",22.19583825,113.29735835
648,"科技八路东",22.39757065,113.55511765
649,"科技六路中",22.39472955,113.55210545
650,"科技新村",22.2286863,113.4892066
651,"口岸广场东",22.2208603,113.5516173
652,"跨境二路",22.2064557,113.5325719
653,"跨境工业区",22.2053039,113.5330669
654,"跨境工业区北",22.2115619,113.5318848
655,"矿山",22.0761472,113.2776673
656,"矿山四连",22.08617425,113.27454705
657,"矿山学校",22.0724481,113.2847177
658,"矿山猪场",22.07929365,113.27373915
659,"葵竹苑(创业路)",22.2762715,113.5175944
660,"葵竹苑(敬业路)",22.27643495,113.51908925
661,"兰埔(富华里)",22.239335,113.5369786
662,"兰埔东",22.2412432,113.5394324
663,"蓝盾路口",22.2785653,113.5154949
664,"榄坑",22.0300921,113.3146584
665,"榄坑路口",22.02749765,113.3116105
666,"乐园路",22.2837531,113.5717581
667,"雷蛛",22.1967574,113.11987995
668,"李屋",22.262637,113.19292025
669,"里神前",22.313496,113.5703219
670,"里维埃拉北",22.17367765,113.3009872
671,"里维埃拉南",22.1666281,113.2911848
672,"鲤鱼沙",22.2502781,113.2779295
673,"立新村口",22.10262955,113.28059985
674,"丽湖名居",22.194983,113.3203198
675,"丽珠东门",22.10024815,113.278282
676,"励致公司",22.3741543,113.5171874
677,"利通制衣",22.2125433,113.32316875
678,"沥岐",22.25738785,113.19196155
679,"沥溪",22.2917727,113.49131825
680,"沥溪北",22.29463485,113.48882395
681,"沥溪南",22.28906945,113.4936306
682,"荔山",22.14831065,113.1786858
683,"荔山村口",22.1523383,113.17093935
684,"荔山东",22.14891375,113.1827097
685,"荔山砖厂",22.14981805,113.1888423
686,"连接线管理处",22.1829573,113.4740136
687,"连湾",22.069891,113.24136645
688,"连兴二路",22.2281798,113.29230125
689,"莲江",22.3576087,113.2314728
690,"莲塘",22.2493797,113.5140924
691,"莲溪市场",22.3799932,113.2248447
692,"莲溪中学",22.3772062,113.22909315
693,"联厂小学",22.21307715,113.3037558
694,"联发路中",22.098839,113.2670732
695,"联峰路中",22.1731804,113.4917071
696,"联港工业区",22.10988725,113.3155102
697,"联合国际学院",22.3477769,113.53691905
698,"联业工业区",22.187529,113.14106805
699,"联业生活区",22.19396175,113.1520415
700,"凉粉桥",22.2296393,113.54574085
701,"列圣",22.04982455,113.3301606
702,"林场",22.2164711,113.22951265
703,"灵岩洞",22.0462831,113.37546495
704,"刘家环",22.25878315,113.2933477
705,"刘家环北",22.263874,113.2907817
706,"六围",22.19511565,113.3792902
707,"六乡旧镇府",22.30611265,113.27973585
708,"六乡中心小学",22.3058049,113.2705873
709,"六小",22.26759885,113.5551513
710,"龙濠路南",22.21611925,113.17688745
711,"龙泉路口",22.39976805,113.16664985
712,"龙山",22.17200395,113.1480408
713,"龙山大道北",22.2276131,113.1818179
714,"龙山二路中",22.22082825,113.17762415
715,"龙山工业区",22.2163283,113.18853655
716,"龙山社区",22.22269755,113.18182195
717,"龙霞路口",22.21672365,113.27674555
718,"龙珠花园",22.20052345,113.2970332
719,"罗村",22.38555105,113.5132633
720,"罗西尼",22.39417195,113.54760535
721,"螺洲工业园",22.31383985,113.30565
722,"旅游大道南",22.2224694,113.2097713
723,"马山北路",22.1863082,113.1388664
724,"马山村口",22.1774214,113.13363215
725,"马山东",22.1728777,113.1420564
726,"马山旧车站",22.17646795,113.13593415
727,"马山市场",22.17354645,113.1391905
728,"马腿(公交招呼站)",22.1921248,113.4578476
729,"码头",22.020942,113.39551815
730,"码头冲",22.119201,113.2116997
731,"茅田",22.04811755,113.3558202
732,"茅田西",22.04540535,113.34890085
733,"茅田中",22.04524995,113.35434495
734,"茂丰路北",22.22620355,113.51683655
735,"茂丰路南",22.2200497,113.5193753
736,"茂丰路中",22.22284425,113.5181894
737,"茂生围",22.24733725,113.3060552
738,"梅华东",22.28988695,113.56197025
739,"梅华中",22.2811383,113.52920755
740,"梅界东",22.28727565,113.51769835
741,"梅溪牌坊 (Meixi River)",22.28781315,113.50941465
742,"美宸电子",22.13271065,113.3357191
743,"美丽湾",22.31150035,113.57890555
744,"美凌达",21.9974493,113.1905171
745,"美平二街",22.0972052,113.1768849
746,"美平路口",22.10389845,113.1802429
747,"美平小学",22.0755356,113.1646051
748,"美平一街",22.10137585,113.18058475
749,"美平一街南",22.0971872,113.1805844
750,"米围村口",22.2869305,113.31915
751,"免税商场",22.2570172,113.5755622
752,"鳘鱼沙",22.3017319,113.2448784
753,"名都",22.0766658,113.36438195
754,"名街花园",22.279112,113.54568405
755,"名亭公园",22.2778905,113.5762095
756,"名图科技",22.37884255,113.5170811
757,"明智工业园",22.1722243,113.1454948
758,"明珠北",22.2629493,113.5141308
759,"明珠山庄",22.23979565,113.51927385
760,"明珠商业广场",22.2479063,113.5157326
761,"明珠学校",22.2446759,113.5017726
762,"明珠中",22.252472,113.51530275
763,"摩尔广场",22.2372111,113.5462873
764,"那洲",22.3649876,113.4944616
765,"那洲检查站",22.3656285,113.4922667
766,"南澳村口",22.32152505,113.2693465
767,"南澳市场",22.32425,113.27057215
768,"南澳猪场",22.314257,113.2632207
769,"南场村委",22.0076979,113.22835265
770,"南村",22.2722949,113.5404621
771,"南村东",22.2744139,113.54397305
772,"南方IT学院",22.20611355,113.3225985
773,"南方华力通",22.11107285,113.3118988
774,"南方软件园",22.37673495,113.5695767
775,"南环市场",22.26597525,113.3199401
776,"南坑",22.27826665,113.56072355
777,"南门",22.23612485,113.1902425
778,"南排",22.11816235,113.326209
779,"南屏",22.22339875,113.5046066
780,"南屏大桥",22.22961715,113.50152875
781,"南屏大桥北",22.2401115,113.4970171
782,"南屏大桥西",22.2314469,113.5001028
783,"南屏街口",22.2236244,113.50111915
784,"南屏科技园(16路)",22.2205043,113.4656804
785,"南屏科技园(86路)",22.2216339,113.4672855
786,"南屏水库",22.21900645,113.48166815
787,"南屏中学",22.2211791,113.4933988
788,"南琴路南",22.1733692,113.50607465
789,"南泉路口(香洲第二医院)",22.2221514,113.4973377
790,"南沙湾",22.2373322,113.4897258
791,"南山",22.21017045,113.52121355
792,"南山村",22.00867315,113.23093085
793,"南山村口",22.1624598,113.1692445
794,"南水车站",22.0306206,113.232538
795,"南水大道东",21.98563335,113.18384045
796,"南水市场",22.0299234,113.2303706
797,"南水消防队",22.01435155,113.20073405
798,"南顺路口",22.1131415,113.3197171
799,"南泰明湾",22.2302447,113.4924704
800,"南坦路东",22.2804241,113.49682665
801,"南通",22.0186639,113.19519455
802,"南通花园",22.026985,113.19791975
803,"南通四队",22.0335983,113.20173925
804,"南通油站",22.02343145,113.19651305
805,"南湾南路北",22.1896379,113.52536025
806,"南湾南路南",22.17410565,113.5130642
807,"南湾总站",22.2155933,113.5177239
808,"南旺小区(新堂路)",22.16057365,113.24093525
809,"南旺小区(珠峰大道)",22.1592973,113.2411326
810,"南围",22.21030735,113.45639685
811,"南溪",22.2854972,113.495961
812,"南香里(妇幼保健院)",22.2719351,113.5561139
813,"南翔路北",22.134634,113.3358672
814,"南翔路口",22.1306624,113.34243035
815,"南新",22.1434065,113.2039043
816,"南新二队",22.14612405,113.20564105
817,"南新桥头",22.14096025,113.20839635
818,"南新四队",22.1409062,113.2025974
819,"南新五队",22.13722505,113.2003284
820,"南油大酒店 (NānYóu DàJiǔDiàn)",22.24195778,113.56762943
821,"坭湾市场",22.19847145,113.29369405
822,"宁堂",22.36367215,113.54404055
823,"柠溪",22.26300055,113.546241
824,"柠溪市场",22.26669145,113.55172635
825,"农科奇观",22.2941082,113.51286535
826,"农科奇观分站",22.2966374,113.5138722
827,"农科所",22.0989294,113.1862817
828,"农民新村",22.23168305,113.4955442
829,"农信大厦",22.28037985,113.55229415
830,"农业银行",22.20358245,113.29613305
831,"农游世界",22.34395045,113.2198297
832,"排山",22.21698235,113.20450705
833,"攀云购物公园",22.22669095,113.48457015
834,"炮台山公园",22.22716745,113.54036
835,"平岗",22.3406231,113.3016526
836,"平螺",22.32081325,113.3078366
837,"平沙",22.10043725,113.1608242
838,"平沙法庭",22.11168695,113.1894129
839,"平沙工会",22.10852285,113.1868783
840,"平沙机械厂",22.1066804,113.1854794
841,"平沙路口",22.06440923,113.23493207
842,"平沙路口西",22.0589955,113.22805135
843,"平沙商贸中心",22.0997065,113.1887945
844,"平沙实验小学",22.09975405,113.1653585
845,"平沙市场",22.10360685,113.1843657
846,"平沙水厂",22.11289155,113.1933771
847,"平沙医院",22.1035889,113.17768595
848,"平沙邮局",22.1055596,113.1825396
849,"平塘三队",22.09366115,113.18865545
850,"平塘四队",22.0875254,113.19246055
851,"平塘五队",22.08439395,113.1945792
852,"平塘新村",22.0902684,113.190973
853,"平铁路口",22.04883395,113.1792812
854,"平湾三路",21.9900263,113.2149238
855,"屏北二路西",22.222181,113.46949405
856,"屏北二路中",22.22401685,113.47566435
857,"屏北三路东",22.21248765,113.450778
858,"屏北三路西",22.2074619,113.4412716
859,"屏北三路中",22.21004855,113.44610655
860,"屏北一路东",22.2228503,113.4823926
861,"屏北一路西",22.2194838,113.4713776
862,"屏北一路中",22.2219057,113.47924185
863,"屏东二路",22.2223592,113.472173
864,"屏东六路",22.22387735,113.4868355
865,"屏西二路",22.2129459,113.453902
866,"婆石",22.2321127,113.5304628
867,"婆湾",22.3983639,113.6380048
868,"埔青街西",22.1686605,113.2665165
869,"埔青街中",22.1694846,113.27215655
870,"普陀寺",22.31532935,113.5233763
871,"七围",22.19286045,113.3808181
872,"七星",22.2016758,113.1376554
873,"七星大道东",22.1966776,113.1379688
874,"淇澳",22.40900575,113.644308
875,"淇澳北",22.4163825,113.6437393
876,"淇澳大桥北",22.3917113,113.6189581
877,"淇澳大桥南",22.37987915,113.605067
878,"麒麟啤酒厂",22.3927509,113.51558405
879,"企鹅酒店",22.1046844,113.5326541
880,"契爷岭",22.3052525,113.57555645
881,"前东二队",22.0491142,113.17747755
882,"前东三队",22.04754665,113.18421745
883,"前东四队",22.04846605,113.188844
884,"前东新村",22.04838255,113.18198545
885,"前东一队",22.050401,113.16960165
886,"前东直属队",22.0473249,113.1868961
887,"前锋",22.04354475,113.33435545
888,"前锋八队",22.0620138,113.18238035
889,"前锋九队",22.0614088,113.1590296
890,"前锋六队",22.06036675,113.17502935
891,"前锋路口",22.0617991,113.15773995
892,"前锋七队",22.06082425,113.17794685
893,"前锋四队",22.0596446,113.1628501
894,"前锋五队",22.05986465,113.17096625
895,"前河东路南",22.2209497,113.5295589
896,"前河东路中",22.23006,113.52407755
897,"前进",22.17423504,113.37895057
898,"前进八队",22.08706745,113.14560805
899,"前山",22.24305,113.5222792
900,"前山桥西",22.226409,113.5133718
901,"前山西门",22.2415278,113.5191202
902,"前山邮局",22.249654,113.5166171
903,"前山站西",22.2361546,113.51918505
904,"前西二队",22.0686078,113.1344374
905,"前西六队",22.05141275,113.16428845
906,"前西三队",22.06147335,113.14537755
907,"前西四队",22.0564386,113.1526601
908,"前西五队",22.0519334,113.16134355
909,"侨光小学",22.22288085,113.53303975
910,"侨立中医院",22.22445635,113.29909395
911,"青岛啤酒",22.1542954,113.1347234
912,"青湾",22.08726055,113.37935555
913,"青湾码头",22.0834575,113.34428645
914,"青湾农场",22.0900268,113.3399205
915,"青竹花园",22.264554,113.549149
916,"清沁园",22.14322395,113.3405657
917,"情侣南路北",22.24040804,113.57905969
918,"情侣南路南",22.23323825,113.56204165
919,"情侣南路中",22.2367652,113.577285
920,"庆华国际酒店",22.23490355,113.5695637
921,"权晖花园",22.22621555,113.52688885
922,"全球通大厦",22.23586965,113.58082405
923,"燃气集团",22.2918979,113.56763725
924,"人力资源中心",22.24736945,113.51062575
925,"人民西路口",22.268898,113.5131432
926,"人民医院",22.27651945,113.57062225
927,"人社局服务窗口",22.2860414,113.5329351
928,"仁恒滨海半岛",22.36057275,113.62221465
929,"任家村",22.2631462,113.27929925
930,"日东涂料",22.05759955,113.35204045
931,"日高公司",22.0745493,113.3595032
932,"日华花园",22.22828775,113.5579906
933,"日通座椅厂",22.3361369,113.20622305
934,"日月贝",22.2848142,113.5852113
935,"荣岱市场",22.242751,113.5139579
936,"荣泰河庭南门",22.2397173,113.5076842
937,"荣泰小学",22.2420364,113.5094026
938,"榕益",22.2213071,113.32099305
939,"撒比斯化学",22.1239759,113.2038902
940,"赛迪生",22.3935117,113.55173775
941,"三板",22.13369435,113.308281
942,"三板市场",22.1346773,113.3265035
943,"三板四连",22.1250427,113.31674885
944,"三板小学",22.1300097,113.3241501
945,"三叠泉",22.1199036,113.49951855
946,"三沟",22.0963409,113.2315187
947,"三间",22.1826513,113.44602775
948,"三里",22.17049995,113.17140545
949,"三龙",22.3851141,113.1795264
950,"三龙东",22.3775695,113.18607915
951,"三台石北",22.2662716,113.5277626
952,"三塘北",22.1218217,113.5073599
953,"三一海洋重工",22.0172092,113.1531261
954,"三灶",22.04726765,113.34285675
955,"三灶车场",22.0450583,113.3411869
956,"三灶街",22.0484646,113.34372815
957,"三灶文化中心",22.05166995,113.3457272
958,"三灶医院",22.0480115,113.35022575
959,"沙白石",21.9360419,113.2419341
960,"沙脊",22.11927865,113.29704505
961,"沙栏",22.28685865,113.27106805
962,"沙栏市场",22.28449565,113.26832165
963,"沙龙新村",22.16591555,113.16891
964,"沙美二队",22.1044761,113.1557001
965,"沙美休闲公园",22.1012276,113.15838285
966,"沙美一队",22.1098325,113.15803555
967,"沙丘遗址",22.40446055,113.6412583
968,"沙湾",22.3496128,113.2314403
969,"山边",22.1847516,113.4544716
970,"山场路中",22.2823601,113.54875835
971,"山场市场",22.28297835,113.5515769
972,"山水恒源",22.1569197,113.23190715
973,"山水花城",22.17599285,113.2690611
974,"上表",22.027297,113.3872723
975,"上冲",22.26843765,113.51645555
976,"上村",22.13839085,113.51098735
977,"上金龙",22.0151471,113.2066703
978,"上栏",22.3616582,113.246799
979,"上栅",22.3880131,113.5301128
980,"上洲",22.2747633,113.1827565
981,"深井",22.09794325,113.49511825
982,"深潭凼",22.23991,113.19925105
983,"神前总站",22.3126858,113.5765514
984,"生化制药厂",22.0766463,113.4047393
985,"省科干学院",22.1340066,113.3467388
986,"圣堂",22.0479587,113.36506315
987,"胜利路",22.0374776,113.308663
988,"胜利路北",22.0509562,113.3149459
989,"盛贤路中",22.09755685,113.1596117
990,"盛兴二路",22.15989995,113.2240039
991,"狮群",22.1508357,113.2332442
992,"狮群东",22.14617995,113.241033
993,"狮山路东",22.2818436,113.56946665
994,"狮山路中",22.28238905,113.5653171
995,"狮山社区医院",22.2817439,113.56697655
996,"狮子头",22.22127525,113.20005145
997,"十六顷",22.282196,113.29397805
998,"十一中",22.23320875,113.5215826
999,"十字门大道",22.1536218,113.5305239
1000,"石场",21.9485881,113.2434227
1001,"石场路口",21.95161735,113.23723945
1002,"石狗",22.1342138,113.2532072
1003,"石花东",22.2461676,113.5856114
1004,"石花路西",22.2405285,113.553142
1005,"石化仓储",21.9201284,113.2208455
1006,"石角(公交招呼站)",22.1859264,113.4554626
1007,"石龙",22.3672737,113.23801585
1008,"石龙村口",22.36874325,113.233307
1009,"石门",22.29153665,113.27848385
1010,"石门坑",22.21634225,113.22541105
1011,"石溪路西",22.283746,113.5249021
1012,"石溪路中",22.286657,113.5294354
1013,"石竹苑",22.26598935,113.5438771
1014,"时代山湖海",22.12468185,113.3683863
1015,"时代香海彼岸",22.16591455,113.3374763
1016,"世邦广场",22.24717645,113.52414
1017,"世邦家居世界",22.25883145,113.52732915
1018,"市图书馆",22.2823516,113.5400688
1019,"曙光",22.21818885,113.3400648
1020,"双龙村口",22.37793965,113.49870685
1021,"双石",22.2105715,113.4620076
1022,"水泊围",22.1035351,113.3308565
1023,"水湾北",22.24743019,113.56931427
1024,"水湾路南",22.2252488,113.5538659
1025,"水湾头",22.23742788,113.56630755
1026,"水拥坑(海天公园)",22.3016705,113.57205105
1027,"顺达路口",22.12695675,113.32822095
1028,"顺意花场",22.27374025,113.26535865
1029,"四九顷",22.3012968,113.20308815
1030,"四塘北",22.1247652,113.5154492
1031,"四中",22.2527183,113.56644235
1032,"饲料厂",22.2965052,113.30769435
1033,"泗喜油站",22.281699,113.3033633
1034,"松山",22.22610435,113.2093906
1035,"隧道南",22.24332445,113.54550775
1036,"獭山",22.3964376,113.16265915
1037,"獭山村口",22.39807195,113.1633646
1038,"台创园北(立新六队)",22.09309525,113.2030995
1039,"台创园南(连湾四队)",22.07080015,113.2276619
1040,"太平湾",21.98380985,113.19807495
1041,"太平洋粤新",22.2039073,113.1130785
1042,"太阳鸟游艇",22.07834785,113.25150175
1043,"潭井",22.3934523,113.5105948
1044,"坦洲路口",22.2828588,113.4973282
1045,"汤臣倍健",22.042478,113.32314235
1046,"唐家",22.35786,113.5923559
1047,"唐家市场",22.36186165,113.59449745
1048,"唐家市场(唐乐路)",22.3633941,113.5929143
1049,"唐淇路中",22.37572765,113.60204875
1050,"唐人街",22.0526553,113.3417461
1051,"桃园新村",22.2765698,113.55984965
1052,"特警支队",22.2811976,113.51819335
1053,"藤湖苑",22.15792285,113.35981415
1054,"藤景街",22.1548477,113.359755
1055,"藤山二路",22.13842975,113.3334812
1056,"体育中心南",22.2745627,113.5347289
1057,"体育中心西",22.27556785,113.527009
1058,"天地人市场",22.21944185,113.2706773
1059,"天科路北",22.1713216,113.4992538
1060,"天科路中",22.1683807,113.5002784
1061,"天威科技园",22.2186573,113.4684878
1062,"田边",22.21657255,113.2015006
1063,"田家炳中学",22.22377585,113.3193703
1064,"田心",22.0201857,113.37812335
1065,"田岩",22.22897725,113.17259885
1066,"铁炉",22.00321355,113.19127545
1067,"铁山",22.3095855,113.29456405
1068,"通信大厦",22.2568533,113.57043855
1069,"头围",22.2639939,113.3322261
1070,"瓦锡兰",22.20095985,113.11227695
1071,"外沙",22.3972808,113.5279045
1072,"湾口",22.14059325,113.2227918
1073,"湾仔",22.1947704,113.5287813
1074,"湾仔口岸",22.1972438,113.5291859
1075,"湾仔旅游码头",22.19357375,113.52788205
1076,"湾仔沙",22.27540875,113.5734618
1077,"湾仔沙广场",22.2749822,113.5747089
1078,"湾仔中学",22.20634995,113.52558545
1079,"万威美地(五洲家园)",22.15586475,113.34678535
1080,"王保山村",22.2322331,113.20889135
1081,"网山",22.19578645,113.15561875
1082,"旺角百货",22.2743593,113.52028435
1083,"望海楼",22.26868485,113.57623705
1084,"威尔科技园",22.21589665,113.5122511
1085,"威景制衣厂",22.21733655,113.32217105
1086,"威士茂北门",22.4054326,113.52623855
1087,"为农市场",22.288333,113.5627028
1088,"围头",22.3791167,113.2008233
1089,"围头新村",22.3782746,113.1905275
1090,"桅夹",22.21970375,113.32833455
1091,"桅夹村委",22.22181415,113.3378913
1092,"桅夹路口",22.21739595,113.32267745
1093,"桅夹中",22.22067935,113.3307003
1094,"伟创力",22.1621964,113.26533315
1095,"伟创力广场",22.1728176,113.27311615
1096,"卫东",22.0655471,113.2331059
1097,"卫东五队",22.0496266,113.215569
1098,"卫红",22.203514,113.34947985
1099,"卫强",22.20902885,113.34610015
1100,"文武学校",22.30746635,113.2849341
1101,"乌石",22.2791603,113.21707965
1102,"屋边",22.04002535,113.36141035
1103,"五福",22.17605165,113.2868296
1104,"五七桥",22.10910765,113.28938695
1105,"五山沙龙",22.1686657,113.1720213
1106,"五山糖厂",22.1718684,113.1528706
1107,"五山卫生院",22.1713388,113.1704073
1108,"五山中心小学",22.1576542,113.1700065
1109,"五山中学",22.17341735,113.16760575
1110,"五一三广场",22.11049285,113.1935153
1111,"武警支队",22.2569015,113.53970885
1112,"西海岸花园",22.1014118,113.19759
1113,"西湖城区",22.1387553,113.3628599
1114,"西江月花园",22.1535072,113.34902145
1115,"西窖",22.29563745,113.2026045
1116,"西坑",21.9310177,113.23961815
1117,"西六围",22.19775185,113.3774351
1118,"西埔村口",22.1647232,113.26017865
1119,"西埔路中",22.16641735,113.26681175
1120,"西埔明珠广场",22.1678215,113.2641376
1121,"西埔长途站",22.16992935,113.27512205
1122,"西湾",22.22704195,113.26020275
1123,"西湾东",22.23075455,113.267487
1124,"西湾小学",22.2283284,113.2629308
1125,"西五围",22.2072259,113.3707273
1126,"虾山路口",22.3103296,113.2597822
1127,"下冲",22.1448207,113.2764874
1128,"下村",22.1411544,113.5236353
1129,"下金龙路口",22.0090995,113.1927004
1130,"下谭路口",22.39195865,113.5126336
1131,"下栅",22.38350035,113.54102775
1132,"下洲路口",22.2519193,113.1909604
1133,"夏村",22.19285745,113.14753115
1134,"夏村南",22.19085945,113.14518925
1135,"夏美",22.27990305,113.5650691
1136,"夏湾路口",22.2231706,113.5285472
1137,"夏湾路中",22.2249674,113.5329172
1138,"夏湾市场",22.2272635,113.5364195
1139,"夏湾新村",22.226125,113.536904
1140,"仙桥路南",22.2177918,113.5173419
1141,"乡意浓",22.2563006,113.2640915
1142,"香工路北",22.1745751,113.4738596
1143,"香工路口",22.1764371,113.4737699
1144,"香工路南",22.16250095,113.4739015
1145,"香华东",22.2760225,113.5417824
1146,"香华中",22.2754025,113.5384623
1147,"香炉湾",22.2723021,113.5765992
1148,"香宁花园",22.2684154,113.5520131
1149,"香山驿站",22.2830445,113.53641935
1150,"香洲港西",22.2913393,113.5729227
1151,"香洲区府",22.2715658,113.53597955
1152,"香洲总站",22.28232295,113.5613418
1153,"祥环新村",22.0268853,113.2250732
1154,"翔翼",22.1660883,113.4920015
1155,"向阳东",22.1356106,113.4926673
1156,"小赤坎",22.28149285,113.2058139
1157,"小赤坎东",22.2814424,113.20754415
1158,"小赤坎西",22.279105,113.2025226
1159,"小濠冲",22.2280837,113.1673616
1160,"小濠冲西",22.2267919,113.16493055
1161,"小黄杨",22.24964615,113.26742185
1162,"小林",22.1072651,113.2847038
1163,"小林实小",22.1055126,113.29876945
1164,"小林市场",22.10581035,113.28025275
1165,"小林市场东",22.1068301,113.2810866
1166,"小托村",22.2922099,113.2919219
1167,"小托村中",22.2845892,113.29176035
1168,"小托公园",22.2868667,113.2919477
1169,"斜尾",22.06519965,113.37022625
1170,"斜尾新村",22.06475075,113.371858
1171,"心和制衣厂",22.1228013,113.3322409
1172,"新埠",22.3277687,113.20140105
1173,"新城大道北",22.1442969,113.1586587
1174,"新冲",22.30544165,113.2500873
1175,"新村",22.2738598,113.549564
1176,"新村口",22.3861769,113.5161302
1177,"新东",22.11002035,113.29452515
1178,"新二",22.2583477,113.32325985
1179,"新二桥头",22.2546833,113.32448097
1180,"新丰村",22.3842952,113.2192836
1181,"新鸿酒店",22.2212871,113.28610455
1182,"新徽实验学校",22.16354355,113.2523307
1183,"新力船厂",22.2647733,113.3298592
1184,"新立科技",22.181474,113.13792025
1185,"新马墩",22.185882,113.3851652
1186,"新青二路北",22.17143765,113.27532375
1187,"新青二路口",22.16406835,113.2766663
1188,"新青二路南",22.1648057,113.2766815
1189,"新青二路中",22.1693526,113.2756705
1190,"新青科技园",22.1646448,113.2809042
1191,"新青科技园北",22.1771765,113.2721518
1192,"新青六路口",22.1840723,113.28311075
1193,"新青五路",22.1653695,113.2862494
1194,"新沙",22.24642585,113.3162509
1195,"新沙桥南",22.25331775,113.33531155
1196,"新世界花园",22.08020535,113.38797465
1197,"新市花园",22.2255904,113.54587405
1198,"新堂",22.17763325,113.27805885
1199,"新堂市场",22.17621005,113.27570085
1200,"新堂制衣厂",22.1797436,113.28015675
1201,"新围",22.38605335,113.5069436
1202,"新围村口",22.38458745,113.50509035
1203,"新伟街东",22.1740071,113.28013545
1204,"新伟街西",22.173344,113.27674865
1205,"新屋",22.2188586,113.31293325
1206,"新五",22.2764135,113.30598815
1207,"新五林场",22.28683545,113.3048387
1208,"新香洲万家",22.2692998,113.5217077
1209,"新一村口",22.26825975,113.3281542
1210,"新一冷冻厂",22.2776193,113.31421985
1211,"新益",22.1826155,113.443217
1212,"新泽园",22.17593445,113.27194995
1213,"新洲",22.30592215,113.2046113
1214,"信海大厦",22.2544083,113.5752676
1215,"星汉路东",22.04827505,113.335329
1216,"星汉路西",22.03243515,113.31430345
1217,"星汉路中",22.0466014,113.3303881
1218,"星洋公司",22.11761835,113.1965134
1219,"星宇",22.20198985,113.3217367
1220,"兴发公司",22.0958392,113.2007846
1221,"兴荣路口",22.0448259,113.3734105
1222,"兴湾四路东",22.16589185,113.4721227
1223,"兴业公司",22.22555015,113.48079605
1224,"兴业中",22.27718235,113.5528233
1225,"幸村",22.385606,113.5104765
1226,"秀毓路西",22.2264728,113.5109345
1227,"秀毓路中",22.2279706,113.5145204
1228,"烟墩山",22.25790325,113.57939535
1229,"沿海高速路口",22.3171291,113.4698398
1230,"沿山仔",22.1785733,113.13643145
1231,"阳春埔",22.3896922,113.5054994
1232,"阳光机场酒店",22.01105885,113.3663354
1233,"阳光生态园",22.00805215,113.3207947
1234,"洋河酒厂",22.2171724,113.27609205
1235,"洋环",22.1522483,113.5245177
1236,"漾湖明居",22.24090495,113.5169533
1237,"漾湖明居西门",22.2402213,113.5144836
1238,"一六八医院",22.3824763,113.52901455
1239,"一职校",22.27635565,113.51323245
1240,"一中东门",22.2849133,113.52270445
1241,"一字桥头",22.1494062,113.2269978
1242,"怡馨园",22.22085975,113.18031835
1243,"乙川精机",22.01490885,113.1912049
1244,"艺匠家居",22.2203423,113.1891297
1245,"艺术高中站",22.25657935,113.52400575
1246,"艺术学院",22.137513,113.3512231
1247,"益力集团",22.2102354,113.3047276
1248,"意多家私",22.21521865,113.15466985
1249,"银宝山",22.3640517,113.2420369
1250,"银城酒店",22.2113046,113.2938301
1251,"银都",22.22938835,113.54947015
1252,"银海新村",22.2285221,113.5562567
1253,"银桦新村",22.274459,113.55510845
1254,"银坑",22.3213085,113.59888585
1255,"银坑村",22.18270365,113.52147215
1256,"银沙滩",22.00792345,113.3449089
1257,"银潭",22.33265105,113.2748727
1258,"银鑫花园",22.1472099,113.538861
1259,"银星花园",22.3178143,113.59396495
1260,"英表",22.0055547,113.35922755
1261,"英表南",22.0030479,113.35548515
1262,"迎宾北路口",22.28487965,113.5437287
1263,"盈得利制衣厂",22.3656007,113.50213725
1264,"映月路西",22.04942995,113.33890565
1265,"映月新村",22.0503534,113.3417584
1266,"永安路中",22.11520155,113.3172597
1267,"永丰路口",22.37202645,113.5084583
1268,"永辉路口",22.0393758,113.32056855
1269,"永结花园",22.1371967,113.3312924
1270,"永前制冰",22.20685365,113.32033175
1271,"永泰路西",22.1319356,113.32937275
1272,"永田路中",22.29656035,113.5009584
1273,"优泰科技",22.3778728,113.5097594
1274,"邮政大厦",22.2849728,113.56972805
1275,"油码头",22.0690297,113.4106786
1276,"鱼林",22.0403993,113.32850695
1277,"鱼林小学",22.03608485,113.3222919
1278,"鱼弄",22.0593896,113.3571721
1279,"渔村",22.3698925,113.59078305
1280,"玉柴",22.19702525,113.11213875
1281,"御温泉",22.2488525,113.1916142
1282,"裕华公司",22.36827905,113.59525805
1283,"裕泰工业园",22.1019601,113.19596695
1284,"裕田化工",22.0114972,113.1874093
1285,"元盛电子",22.1678672,113.4738757
1286,"园林西",22.25358415,113.57254715
1287,"园区服务中心",22.3803156,113.5211982
1288,"园艺研究所",22.29328995,113.50727735
1289,"圆明山庄",22.24208825,113.5368789
1290,"圆明新园",22.2402996,113.533384
1291,"月坑",22.30551745,113.27608865
1292,"月坑市场",22.3048522,113.2772497
1293,"月堂",22.0546178,113.34361955
1294,"粤海东",22.22755205,113.55310415
1295,"粤华西",22.22361305,113.53740285
1296,"粤裕丰钢铁厂",21.96576555,113.19764905
1297,"云顶澜山",22.2877197,113.505499
1298,"造贝",22.2445332,113.5072747
1299,"造贝东",22.2466942,113.5051066
1300,"造贝西",22.2432926,113.4985513
1301,"造裕路",22.2443007,113.5038135
1302,"长亨",22.21935235,113.279516
1303,"长隆",22.1005455,113.535832
1304,"长隆大道东",22.1095662,113.5426422
1305,"长隆深井基地",22.0954377,113.4889576
1306,"长沙",22.2815348,113.50608315
1307,"长沙圩",22.2776179,113.5028027
1308,"长兴化学",21.9892955,113.2023122
1309,"长园电力",22.38812795,113.5471356
1310,"招商花园城",22.25982645,113.5205321
1311,"招商花园城南",22.2578143,113.516919
1312,"昭信",22.20627095,113.34796745
1313,"昭信路口",22.22420465,113.33570915
1314,"珍珠乐园",22.37523065,113.5770451
1315,"振达猪场",22.3502213,113.27511565
1316,"正表",22.01637415,113.3731502
1317,"正坑",22.34787655,113.50860125
1318,"正业",22.19112065,113.13585305
1319,"纸箱厂",22.27119635,113.3174357
1320,"中臣花园",22.2397374,113.4996302
1321,"中大南门",22.3438968,113.58483085
1322,"中大五院",22.29942015,113.56939245
1323,"中电大厦",22.2480676,113.56625325
1324,"中电投",22.1258414,113.4677138
1325,"中纺城",22.22981835,113.30733685
1326,"中富",22.1732163,113.4807191
1327,"中南修理厂",22.0558358,113.3470439
1328,"中润集团",22.2149631,113.1764207
1329,"中山大学",22.35089475,113.58789245
1330,"中山亭",22.24904805,113.52000655
1331,"中心村",22.04784475,113.37001325
1332,"中心大道路口",22.14780565,113.4931644
1333,"中心路中",22.2090385,113.5324049
1334,"中心路中 Centro da Zona Industrial",22.2092694,113.5325114
1335,"中心围",22.3542314,113.2735919
1336,"中兴南",22.19775265,113.29785185
1337,"中阳革业",22.05641765,113.2240425
1338,"中医院",22.2547076,113.5736527
1339,"中珠花园",22.13930295,113.3430118
1340,"中珠桥",22.3920567,113.53083005
1341,"洲仔",22.246503,113.58724475
1342,"珠峰大道西",22.1440672,113.1489947
1343,"珠港大道北",21.99879005,113.1828519
1344,"珠光汽车公司",22.21589285,113.471352
1345,"珠海保税区",22.1719314,113.50945195
1346,"珠海大剧院",22.284939,113.5742088
1347,"珠海大桥东",22.1978927,113.43055205
1348,"珠海大桥西",22.1804801,113.39669305
1349,"珠海电厂",21.97421075,113.18365915
1350,"珠海电台",22.25130865,113.5830022
1351,"珠海港",21.968294,113.2154183
1352,"珠海西站路口",22.0089408,113.15797295
1353,"珠海一中",22.2796855,113.5216051
1354,"珠海一中平沙校区",22.1005859,113.169373
1355,"珠海渔女",22.26427705,113.5839829
1356,"珠江摩托",22.09608305,113.2657738
1357,"竹场",22.12931425,113.2177025
1358,"竹坑",22.23134435,113.18955865
1359,"竹仙洞",22.2133465,113.5162378
1360,"竹苑",22.24294915,113.5520646
1361,"竹洲小学",22.36721945,113.26664795
1362,"卓雅花园",22.256004,113.53559035
1363,"卓越路口",22.04173655,113.36061725
1364,"I湾桥头",22.34692485,113.2768895
1365,"I湾市场",22.34322135,113.27850935
1366,"紫荆园",22.28609315,113.560568
1367,"紫园路东",22.09889025,113.17920535
1368,"紫园路西",22.0936213,113.16097525
1369,"紫园路中",22.0972496,113.1747358
1370,"遵义医学院",22.0734263,113.39427805
