{
  "type": "FeatureCollection",
  "generator": "overpass-ide",
  "copyright": "The data included in this document is from www.openstreetmap.org. The data is made available under ODbL.",
  "timestamp": "2018-03-27T08:46:02Z",
  "features": [
    {
      "type": "Feature",
      "properties": {
        "@id": "way/181644450",
        "building": "roof",
        "highway": "bus_stop",
        "name": "南油大酒店 (NānYóu DàJiǔDiàn)",
        "name:en": "Nanhai Oil Hotel (Unofficial Translation)"
      },
      "geometry": {
        "type": "Polygon",
        "coordinates": [
          [
            [
              113.5678037,
              22.2419731
            ],
            [
              113.5678357,
              22.241962
            ],
            [
              113.5679594,
              22.2422674
            ],
            [
              113.5679275,
              22.2422785
            ],
            [
              113.5678037,
              22.2419731
            ]
          ]
        ]
      },
      "id": "way/181644450"
    },
    {
      "type": "Feature",
      "properties": {
        "@id": "way/181644453",
        "building": "roof",
        "height": "2.5",
        "highway": "bus_stop",
        "name": "水湾头",
        "name:en": "Shuǐwān Tóu"
      },
      "geometry": {
        "type": "Polygon",
        "coordinates": [
          [
            [
              113.5660311,
              22.2369584
            ],
            [
              113.5661069,
              22.2372633
            ],
            [
              113.5660726,
              22.2372706
            ],
            [
              113.5659968,
              22.2369657
            ],
            [
              113.5660311,
              22.2369584
            ]
          ]
        ]
      },
      "id": "way/181644453"
    },
    {
      "type": "Feature",
      "properties": {
        "@id": "way/181644454",
        "building": "roof",
        "highway": "bus_stop",
        "name": "南油大酒店 (NānYóu DàJiǔDiàn)",
        "name:en": "Nanhai Oil Hotel (Unofficial Translation)"
      },
      "geometry": {
        "type": "Polygon",
        "coordinates": [
          [
            [
              113.5672996,
              22.2416466
            ],
            [
              113.5673322,
              22.2416355
            ],
            [
              113.567455,
              22.2419443
            ],
            [
              113.5674225,
              22.2419554
            ],
            [
              113.5672996,
              22.2416466
            ]
          ]
        ]
      },
      "id": "way/181644454"
    },
    {
      "type": "Feature",
      "properties": {
        "@id": "way/181644458",
        "building": "roof",
        "height": "2.5",
        "highway": "bus_stop",
        "name": "水湾头",
        "name:en": "Shuǐwān Tóu"
      },
      "geometry": {
        "type": "Polygon",
        "coordinates": [
          [
            [
              113.5665063,
              22.2375854
            ],
            [
              113.5665388,
              22.2375783
            ],
            [
              113.5666202,
              22.2378971
            ],
            [
              113.5665877,
              22.2379042
            ],
            [
              113.5665063,
              22.2375854
            ]
          ]
        ]
      },
      "id": "way/181644458"
    },
    {
      "type": "Feature",
      "properties": {
        "@id": "way/181654905",
        "building": "roof",
        "highway": "bus_stop",
        "name": "九洲城"
      },
      "geometry": {
        "type": "Polygon",
        "coordinates": [
          [
            [
              113.5738894,
              22.2591553
            ],
            [
              113.5741791,
              22.2595302
            ],
            [
              113.5741548,
              22.2595479
            ],
            [
              113.5738597,
              22.2591756
            ],
            [
              113.5738894,
              22.2591553
            ]
          ]
        ]
      },
      "id": "way/181654905"
    },
    {
      "type": "Feature",
      "properties": {
        "@id": "way/181654907",
        "building": "roof",
        "highway": "bus_stop",
        "name": "九洲城"
      },
      "geometry": {
        "type": "Polygon",
        "coordinates": [
          [
            [
              113.5741066,
              22.2590064
            ],
            [
              113.5741335,
              22.258989
            ],
            [
              113.5744231,
              22.2593614
            ],
            [
              113.5743962,
              22.2593791
            ],
            [
              113.5741066,
              22.2590064
            ]
          ]
        ]
      },
      "id": "way/181654907"
    },
    {
      "type": "Feature",
      "properties": {
        "@id": "way/181654916",
        "building": "roof",
        "highway": "bus_stop",
        "name": "海滨公园"
      },
      "geometry": {
        "type": "Polygon",
        "coordinates": [
          [
            [
              113.5767885,
              22.2638073
            ],
            [
              113.5768237,
              22.26381
            ],
            [
              113.576797,
              22.2641023
            ],
            [
              113.5767618,
              22.2640995
            ],
            [
              113.5767885,
              22.2638073
            ]
          ]
        ]
      },
      "id": "way/181654916"
    },
    {
      "type": "Feature",
      "properties": {
        "@id": "way/181661621",
        "building": "roof",
        "highway": "bus_stop",
        "name": "情侣南路北"
      },
      "geometry": {
        "type": "Polygon",
        "coordinates": [
          [
            [
              113.578967,
              22.2399607
            ],
            [
              113.5788103,
              22.23954
            ],
            [
              113.5788356,
              22.2395312
            ],
            [
              113.5789906,
              22.2399535
            ],
            [
              113.578967,
              22.2399607
            ]
          ]
        ]
      },
      "id": "way/181661621"
    },
    {
      "type": "Feature",
      "properties": {
        "@id": "way/181661629",
        "building": "roof",
        "highway": "bus_stop",
        "name": "情侣南路北"
      },
      "geometry": {
        "type": "Polygon",
        "coordinates": [
          [
            [
              113.5790988,
              22.2409032
            ],
            [
              113.5791172,
              22.2408917
            ],
            [
              113.5792272,
              22.2410729
            ],
            [
              113.5793532,
              22.2412467
            ],
            [
              113.5793393,
              22.2412583
            ],
            [
              113.5792095,
              22.2410859
            ],
            [
              113.5790988,
              22.2409032
            ]
          ]
        ]
      },
      "id": "way/181661629"
    },
    {
      "type": "Feature",
      "properties": {
        "@id": "way/181662688",
        "building": "roof",
        "highway": "bus_stop",
        "name": "水湾北"
      },
      "geometry": {
        "type": "Polygon",
        "coordinates": [
          [
            [
              113.5694433,
              22.2472826
            ],
            [
              113.5693539,
              22.2469664
            ],
            [
              113.5693864,
              22.2469586
            ],
            [
              113.5694758,
              22.2472748
            ],
            [
              113.5694433,
              22.2472826
            ]
          ]
        ]
      },
      "id": "way/181662688"
    },
    {
      "type": "Feature",
      "properties": {
        "@id": "way/181662693",
        "building": "roof",
        "highway": "bus_stop",
        "name": "水湾北"
      },
      "geometry": {
        "type": "Polygon",
        "coordinates": [
          [
            [
              113.5691394,
              22.247525
            ],
            [
              113.5691716,
              22.2475151
            ],
            [
              113.5692885,
              22.247961
            ],
            [
              113.5692579,
              22.2479682
            ],
            [
              113.5691394,
              22.247525
            ]
          ]
        ]
      },
      "id": "way/181662693"
    },
    {
      "type": "Feature",
      "properties": {
        "@id": "node/1522473391",
        "highway": "bus_stop",
        "name": "三叠泉"
      },
      "geometry": {
        "type": "Point",
        "coordinates": [
          113.5008039,
          22.1199624
        ]
      },
      "id": "node/1522473391"
    },
    {
      "type": "Feature",
      "properties": {
        "@id": "node/1748636407",
        "highway": "bus_stop",
        "name": "吉大",
        "name:zh": "吉大"
      },
      "geometry": {
        "type": "Point",
        "coordinates": [
          113.5711866,
          22.2539678
        ]
      },
      "id": "node/1748636407"
    },
    {
      "type": "Feature",
      "properties": {
        "@id": "node/1748636432",
        "highway": "bus_stop",
        "name": "吉大",
        "name:zh": "吉大"
      },
      "geometry": {
        "type": "Point",
        "coordinates": [
          113.5711243,
          22.2544557
        ]
      },
      "id": "node/1748636432"
    },
    {
      "type": "Feature",
      "properties": {
        "@id": "node/1748645179",
        "highway": "bus_stop",
        "name": "珠海渔女"
      },
      "geometry": {
        "type": "Point",
        "coordinates": [
          113.5845221,
          22.2642029
        ]
      },
      "id": "node/1748645179"
    },
    {
      "type": "Feature",
      "properties": {
        "@id": "node/1748645180",
        "highway": "bus_stop",
        "name": "珠海渔女"
      },
      "geometry": {
        "type": "Point",
        "coordinates": [
          113.5834437,
          22.2643512
        ]
      },
      "id": "node/1748645180"
    },
    {
      "type": "Feature",
      "properties": {
        "@id": "node/1749752764",
        "highway": "bus_stop",
        "name": "公积金中心",
        "name:zh": "公積金中心"
      },
      "geometry": {
        "type": "Point",
        "coordinates": [
          113.5745617,
          22.2713617
        ]
      },
      "id": "node/1749752764"
    },
    {
      "type": "Feature",
      "properties": {
        "@id": "node/1749752779",
        "highway": "bus_stop",
        "name": "百货公司",
        "name:zh": "百貨公司"
      },
      "geometry": {
        "type": "Point",
        "coordinates": [
          113.5734003,
          22.2788087
        ]
      },
      "id": "node/1749752779"
    },
    {
      "type": "Feature",
      "properties": {
        "@id": "node/1749752790",
        "highway": "bus_stop",
        "name": "湾仔沙",
        "name:zh": "灣仔沙"
      },
      "geometry": {
        "type": "Point",
        "coordinates": [
          113.5738482,
          22.2760132
        ]
      },
      "id": "node/1749752790"
    },
    {
      "type": "Feature",
      "properties": {
        "@id": "node/1749752791",
        "highway": "bus_stop",
        "name": "光大国贸",
        "name:zh": "光大國貿"
      },
      "geometry": {
        "type": "Point",
        "coordinates": [
          113.5776548,
          22.2584298
        ]
      },
      "id": "node/1749752791"
    },
    {
      "type": "Feature",
      "properties": {
        "@id": "node/1749752802",
        "highway": "bus_stop",
        "name": "湾仔沙",
        "name:zh": "灣仔沙"
      },
      "geometry": {
        "type": "Point",
        "coordinates": [
          113.5730754,
          22.2748043
        ]
      },
      "id": "node/1749752802"
    },
    {
      "type": "Feature",
      "properties": {
        "@id": "node/1749752803",
        "highway": "bus_stop",
        "name": "海滨南",
        "name:zh": "海濱南"
      },
      "geometry": {
        "type": "Point",
        "coordinates": [
          113.5783505,
          22.2569969
        ]
      },
      "id": "node/1749752803"
    },
    {
      "type": "Feature",
      "properties": {
        "@id": "node/1749760749",
        "highway": "bus_stop",
        "name": "凤凰北"
      },
      "geometry": {
        "type": "Point",
        "coordinates": [
          113.5665068,
          22.2899088
        ]
      },
      "id": "node/1749760749"
    },
    {
      "type": "Feature",
      "properties": {
        "@id": "node/1749766808",
        "highway": "bus_stop",
        "name": "海湾大酒店",
        "name:zh": "海灣大酒店"
      },
      "geometry": {
        "type": "Point",
        "coordinates": [
          113.5602037,
          22.232564
        ]
      },
      "id": "node/1749766808"
    },
    {
      "type": "Feature",
      "properties": {
        "@id": "node/1749766811",
        "highway": "bus_stop",
        "name": "日华花园",
        "name:zh": "日華花園"
      },
      "geometry": {
        "type": "Point",
        "coordinates": [
          113.5587026,
          22.2291829
        ]
      },
      "id": "node/1749766811"
    },
    {
      "type": "Feature",
      "properties": {
        "@id": "node/1749788866",
        "highway": "bus_stop",
        "name": "铁炉"
      },
      "geometry": {
        "type": "Point",
        "coordinates": [
          113.1909268,
          22.0023481
        ]
      },
      "id": "node/1749788866"
    },
    {
      "type": "Feature",
      "properties": {
        "@id": "node/1749788870",
        "highway": "bus_stop",
        "name": "南通油站"
      },
      "geometry": {
        "type": "Point",
        "coordinates": [
          113.1969343,
          22.0240061
        ]
      },
      "id": "node/1749788870"
    },
    {
      "type": "Feature",
      "properties": {
        "@id": "node/1749788873",
        "highway": "bus_stop",
        "name": "北七路中"
      },
      "geometry": {
        "type": "Point",
        "coordinates": [
          113.2039676,
          21.9763003
        ]
      },
      "id": "node/1749788873"
    },
    {
      "type": "Feature",
      "properties": {
        "@id": "node/1749788875",
        "highway": "bus_stop",
        "name": "石场路口"
      },
      "geometry": {
        "type": "Point",
        "coordinates": [
          113.2367026,
          21.9516582
        ]
      },
      "id": "node/1749788875"
    },
    {
      "type": "Feature",
      "properties": {
        "@id": "node/1749788876",
        "highway": "bus_stop",
        "name": "南通"
      },
      "geometry": {
        "type": "Point",
        "coordinates": [
          113.1955486,
          22.0191065
        ]
      },
      "id": "node/1749788876"
    },
    {
      "type": "Feature",
      "properties": {
        "@id": "node/1749788878",
        "highway": "bus_stop",
        "name": "南通花园"
      },
      "geometry": {
        "type": "Point",
        "coordinates": [
          113.1983533,
          22.0274678
        ]
      },
      "id": "node/1749788878"
    },
    {
      "type": "Feature",
      "properties": {
        "@id": "node/1749788879",
        "highway": "bus_stop",
        "name": "化工专区",
        "route_ref": "502;K8"
      },
      "geometry": {
        "type": "Point",
        "coordinates": [
          113.1946609,
          22.0155796
        ]
      },
      "id": "node/1749788879"
    },
    {
      "type": "Feature",
      "properties": {
        "@id": "node/1749788915",
        "highway": "bus_stop",
        "name": "下金龙路口"
      },
      "geometry": {
        "type": "Point",
        "coordinates": [
          113.1931155,
          22.0098777
        ]
      },
      "id": "node/1749788915"
    },
    {
      "type": "Feature",
      "properties": {
        "@id": "node/1749788918",
        "highway": "bus_stop",
        "name": "钢铁厂西门"
      },
      "geometry": {
        "type": "Point",
        "coordinates": [
          113.1883318,
          21.9614816
        ]
      },
      "id": "node/1749788918"
    },
    {
      "type": "Feature",
      "properties": {
        "@id": "node/1749788922",
        "highway": "bus_stop",
        "name": "下金龙路口"
      },
      "geometry": {
        "type": "Point",
        "coordinates": [
          113.1922853,
          22.0083213
        ]
      },
      "id": "node/1749788922"
    },
    {
      "type": "Feature",
      "properties": {
        "@id": "node/1749792488",
        "highway": "bus_stop",
        "name": "电厂路口"
      },
      "geometry": {
        "type": "Point",
        "coordinates": [
          113.1903798,
          21.993246
        ]
      },
      "id": "node/1749792488"
    },
    {
      "type": "Feature",
      "properties": {
        "@id": "node/1749792489",
        "highway": "bus_stop",
        "name": "美凌达"
      },
      "geometry": {
        "type": "Point",
        "coordinates": [
          113.1908509,
          21.9981371
        ]
      },
      "id": "node/1749792489"
    },
    {
      "type": "Feature",
      "properties": {
        "@id": "node/1749792491",
        "highway": "bus_stop",
        "name": "珠海电厂"
      },
      "geometry": {
        "type": "Point",
        "coordinates": [
          113.1835668,
          21.973991
        ]
      },
      "id": "node/1749792491"
    },
    {
      "type": "Feature",
      "properties": {
        "@id": "node/1758310773",
        "highway": "bus_stop",
        "name": "中电大厦",
        "name:zh": "中電大廈"
      },
      "geometry": {
        "type": "Point",
        "coordinates": [
          113.5673053,
          22.248219
        ]
      },
      "id": "node/1758310773"
    },
    {
      "type": "Feature",
      "properties": {
        "@id": "node/1758310787",
        "highway": "bus_stop",
        "name": "隧道南",
        "name:zh": "隧道南"
      },
      "geometry": {
        "type": "Point",
        "coordinates": [
          113.5451738,
          22.2434337
        ]
      },
      "id": "node/1758310787"
    },
    {
      "type": "Feature",
      "properties": {
        "@id": "node/1758310803",
        "highway": "bus_stop",
        "name": "竹苑",
        "name:zh": "竹苑"
      },
      "geometry": {
        "type": "Point",
        "coordinates": [
          113.551746,
          22.2430194
        ]
      },
      "id": "node/1758310803"
    },
    {
      "type": "Feature",
      "properties": {
        "@id": "node/1758310860",
        "highway": "bus_stop",
        "name": "华侨宾馆",
        "name:zh": "華僑賓館",
        "name:zh_pinyin": "huáqiáo bīnguǎn"
      },
      "geometry": {
        "type": "Point",
        "coordinates": [
          113.5469656,
          22.2337585
        ]
      },
      "id": "node/1758310860"
    },
    {
      "type": "Feature",
      "properties": {
        "@id": "node/1758310930",
        "highway": "bus_stop",
        "name": "华侨宾馆",
        "name:zh": "華僑賓館",
        "name:zh_pinyin": "huáqiáo bīnguǎn"
      },
      "geometry": {
        "type": "Point",
        "coordinates": [
          113.5467054,
          22.2330981
        ]
      },
      "id": "node/1758310930"
    },
    {
      "type": "Feature",
      "properties": {
        "@id": "node/1758310969",
        "highway": "bus_stop",
        "name": "隧道南",
        "name:zh": "隧道南"
      },
      "geometry": {
        "type": "Point",
        "coordinates": [
          113.5458417,
          22.2432152
        ]
      },
      "id": "node/1758310969"
    },
    {
      "type": "Feature",
      "properties": {
        "@id": "node/1758311017",
        "highway": "bus_stop",
        "name": "北岭",
        "name:zh": "北岭",
        "name:zh_pinyin": "běi lǐng"
      },
      "geometry": {
        "type": "Point",
        "coordinates": [
          113.5459041,
          22.2391117
        ]
      },
      "id": "node/1758311017"
    },
    {
      "type": "Feature",
      "properties": {
        "@id": "node/1758311019",
        "highway": "bus_stop",
        "name": "北岭",
        "name:zh": "北嶺",
        "name:zh_pinyin": "běi lǐng"
      },
      "geometry": {
        "type": "Point",
        "coordinates": [
          113.5463057,
          22.2387142
        ]
      },
      "id": "node/1758311019"
    },
    {
      "type": "Feature",
      "properties": {
        "@id": "node/1758334352",
        "highway": "bus_stop",
        "name": "公交新村"
      },
      "geometry": {
        "type": "Point",
        "coordinates": [
          113.5443647,
          22.2712954
        ]
      },
      "id": "node/1758334352"
    },
    {
      "type": "Feature",
      "properties": {
        "@id": "node/1758379567",
        "highway": "bus_stop",
        "name": "南村"
      },
      "geometry": {
        "type": "Point",
        "coordinates": [
          113.5405007,
          22.2724143
        ]
      },
      "id": "node/1758379567"
    },
    {
      "type": "Feature",
      "properties": {
        "@id": "node/1758379568",
        "highway": "bus_stop",
        "name": "安居园",
        "name:zh": "安居園"
      },
      "geometry": {
        "type": "Point",
        "coordinates": [
          113.5256018,
          22.2696923
        ]
      },
      "id": "node/1758379568"
    },
    {
      "type": "Feature",
      "properties": {
        "@id": "node/1758379585",
        "highway": "bus_stop",
        "name": "公交花园"
      },
      "geometry": {
        "type": "Point",
        "coordinates": [
          113.5073801,
          22.2743508
        ]
      },
      "id": "node/1758379585"
    },
    {
      "type": "Feature",
      "properties": {
        "@id": "node/1758379586",
        "highway": "bus_stop",
        "name": "香洲区府",
        "name:zh": "香洲區府"
      },
      "geometry": {
        "type": "Point",
        "coordinates": [
          113.5373622,
          22.271604
        ]
      },
      "id": "node/1758379586"
    },
    {
      "type": "Feature",
      "properties": {
        "@id": "node/1758379593",
        "highway": "bus_stop",
        "name": "新香洲萬家",
        "name:zh": "新香洲万家"
      },
      "geometry": {
        "type": "Point",
        "coordinates": [
          113.522114,
          22.2695137
        ]
      },
      "id": "node/1758379593"
    },
    {
      "type": "Feature",
      "properties": {
        "@id": "node/1758379611",
        "highway": "bus_stop",
        "name": "上冲"
      },
      "geometry": {
        "type": "Point",
        "coordinates": [
          113.5161443,
          22.2682129
        ]
      },
      "id": "node/1758379611"
    },
    {
      "type": "Feature",
      "properties": {
        "@id": "node/1758379633",
        "highway": "bus_stop",
        "name": "长沙圩"
      },
      "geometry": {
        "type": "Point",
        "coordinates": [
          113.5028527,
          22.277733
        ]
      },
      "id": "node/1758379633"
    },
    {
      "type": "Feature",
      "properties": {
        "@id": "node/1758379649",
        "highway": "bus_stop",
        "name": "安居園",
        "name:zh": "安居园"
      },
      "geometry": {
        "type": "Point",
        "coordinates": [
          113.5257005,
          22.2700756
        ]
      },
      "id": "node/1758379649"
    },
    {
      "type": "Feature",
      "properties": {
        "@id": "node/1758379656",
        "highway": "bus_stop",
        "name": "红山(仁恒星园)",
        "name:zh": "紅山(仁恆星園)"
      },
      "geometry": {
        "type": "Point",
        "coordinates": [
          113.5310574,
          22.2705511
        ]
      },
      "id": "node/1758379656"
    },
    {
      "type": "Feature",
      "properties": {
        "@id": "node/1758379672",
        "highway": "bus_stop",
        "name": "上冲"
      },
      "geometry": {
        "type": "Point",
        "coordinates": [
          113.5167668,
          22.2686624
        ]
      },
      "id": "node/1758379672"
    },
    {
      "type": "Feature",
      "properties": {
        "@id": "node/1758379681",
        "highway": "bus_stop",
        "name": "新香洲万家",
        "name:zh": "新香洲萬家"
      },
      "geometry": {
        "type": "Point",
        "coordinates": [
          113.5213014,
          22.2690859
        ]
      },
      "id": "node/1758379681"
    },
    {
      "type": "Feature",
      "properties": {
        "@id": "node/1758379682",
        "highway": "bus_stop",
        "name": "公交花园"
      },
      "geometry": {
        "type": "Point",
        "coordinates": [
          113.507623,
          22.2736848
        ]
      },
      "id": "node/1758379682"
    },
    {
      "type": "Feature",
      "properties": {
        "@id": "node/1758379686",
        "highway": "bus_stop",
        "name": "紅山(仁恒星園) bus no : 68,K2",
        "name:zh": "红山(仁恒星园)"
      },
      "geometry": {
        "type": "Point",
        "coordinates": [
          113.5311364,
          22.2709399
        ]
      },
      "id": "node/1758379686"
    },
    {
      "type": "Feature",
      "properties": {
        "@id": "node/1758398076",
        "highway": "bus_stop",
        "name": "城市阳台"
      },
      "geometry": {
        "type": "Point",
        "coordinates": [
          113.5774564,
          22.2663154
        ]
      },
      "id": "node/1758398076"
    },
    {
      "type": "Feature",
      "properties": {
        "@id": "node/1758398205",
        "highway": "bus_stop",
        "name": "城市阳台"
      },
      "geometry": {
        "type": "Point",
        "coordinates": [
          113.5780666,
          22.2655864
        ]
      },
      "id": "node/1758398205"
    },
    {
      "type": "Feature",
      "properties": {
        "@id": "node/1758517751",
        "highway": "bus_stop",
        "name": "竹苑"
      },
      "geometry": {
        "type": "Point",
        "coordinates": [
          113.5523832,
          22.2428789
        ]
      },
      "id": "node/1758517751"
    },
    {
      "type": "Feature",
      "properties": {
        "@id": "node/1758551793",
        "highway": "bus_stop",
        "name": "裕华公司"
      },
      "geometry": {
        "type": "Point",
        "coordinates": [
          113.5949816,
          22.3685723
        ]
      },
      "id": "node/1758551793"
    },
    {
      "type": "Feature",
      "properties": {
        "@id": "node/1758551795",
        "highway": "bus_stop",
        "name": "官塘"
      },
      "geometry": {
        "type": "Point",
        "coordinates": [
          113.5478184,
          22.3806927
        ]
      },
      "id": "node/1758551795"
    },
    {
      "type": "Feature",
      "properties": {
        "@id": "node/1758551825",
        "description": "Buses: 3A, 10A, 69, K1, K2",
        "highway": "bus_stop",
        "name": "海怡湾畔",
        "name:zh": "海怡灣畔"
      },
      "geometry": {
        "type": "Point",
        "coordinates": [
          113.5859289,
          22.3719578
        ]
      },
      "id": "node/1758551825"
    },
    {
      "type": "Feature",
      "properties": {
        "@id": "node/1758551831",
        "highway": "bus_stop",
        "name": "海怡湾畔 (haiyi wanpan)",
        "name:zh": "海怡灣畔",
        "shelter": "yes"
      },
      "geometry": {
        "type": "Point",
        "coordinates": [
          113.5872915,
          22.3711343
        ]
      },
      "id": "node/1758551831"
    },
    {
      "type": "Feature",
      "properties": {
        "@id": "node/1758551838",
        "highway": "bus_stop",
        "name": "银坑"
      },
      "geometry": {
        "type": "Point",
        "coordinates": [
          113.5993378,
          22.3219229
        ]
      },
      "id": "node/1758551838"
    },
    {
      "type": "Feature",
      "properties": {
        "@id": "node/1758551865",
        "highway": "bus_stop",
        "name": "珍珠乐园",
        "name:zh": "珍珠樂園"
      },
      "geometry": {
        "type": "Point",
        "coordinates": [
          113.5778007,
          22.3750932
        ]
      },
      "id": "node/1758551865"
    },
    {
      "type": "Feature",
      "properties": {
        "@id": "node/1758551870",
        "highway": "bus_stop",
        "name": "官塘"
      },
      "geometry": {
        "type": "Point",
        "coordinates": [
          113.5474484,
          22.3813367
        ]
      },
      "id": "node/1758551870"
    },
    {
      "type": "Feature",
      "properties": {
        "@id": "node/1758551877",
        "highway": "bus_stop",
        "name": "唐家市场",
        "name:zh": "唐家市場"
      },
      "geometry": {
        "type": "Point",
        "coordinates": [
          113.5940597,
          22.361323
        ]
      },
      "id": "node/1758551877"
    },
    {
      "type": "Feature",
      "properties": {
        "@id": "node/1758551882",
        "highway": "bus_stop",
        "name": "宝莱特科技",
        "name:zh": "寶萊特科技"
      },
      "geometry": {
        "type": "Point",
        "coordinates": [
          113.5542393,
          22.3768003
        ]
      },
      "id": "node/1758551882"
    },
    {
      "type": "Feature",
      "properties": {
        "@id": "node/1758551945",
        "highway": "bus_stop",
        "name": "鸡山"
      },
      "geometry": {
        "type": "Point",
        "coordinates": [
          113.5889954,
          22.3399442
        ]
      },
      "id": "node/1758551945"
    },
    {
      "type": "Feature",
      "properties": {
        "@id": "node/1758551968",
        "highway": "bus_stop",
        "name": "中大五院",
        "name:zh": "中大五院"
      },
      "geometry": {
        "type": "Point",
        "coordinates": [
          113.5701287,
          22.299847
        ]
      },
      "id": "node/1758551968"
    },
    {
      "type": "Feature",
      "properties": {
        "@id": "node/1758551996",
        "highway": "bus_stop",
        "name": "银坑"
      },
      "geometry": {
        "type": "Point",
        "coordinates": [
          113.5984339,
          22.3206941
        ]
      },
      "id": "node/1758551996"
    },
    {
      "type": "Feature",
      "properties": {
        "@id": "node/1758552012",
        "highway": "bus_stop",
        "name": "水拥坑(海天公园)"
      },
      "geometry": {
        "type": "Point",
        "coordinates": [
          113.5723971,
          22.3017653
        ]
      },
      "id": "node/1758552012"
    },
    {
      "type": "Feature",
      "properties": {
        "@id": "node/1758552051",
        "highway": "bus_stop",
        "name": "白埔路口"
      },
      "geometry": {
        "type": "Point",
        "coordinates": [
          113.5896122,
          22.3541064
        ]
      },
      "id": "node/1758552051"
    },
    {
      "type": "Feature",
      "properties": {
        "@id": "node/1758552096",
        "highway": "bus_stop",
        "name": "白沙(魅族)"
      },
      "geometry": {
        "type": "Point",
        "coordinates": [
          113.5628397,
          22.3758597
        ]
      },
      "id": "node/1758552096"
    },
    {
      "type": "Feature",
      "properties": {
        "@id": "node/1758552101",
        "highway": "bus_stop",
        "name": "唐家市场",
        "name:zh": "唐家市場"
      },
      "geometry": {
        "type": "Point",
        "coordinates": [
          113.5949352,
          22.3624003
        ]
      },
      "id": "node/1758552101"
    },
    {
      "type": "Feature",
      "properties": {
        "@id": "node/1758552105",
        "highway": "bus_stop",
        "name": "珍珠乐园",
        "name:zh": "珍珠樂園"
      },
      "geometry": {
        "type": "Point",
        "coordinates": [
          113.5762895,
          22.3753681
        ]
      },
      "id": "node/1758552105"
    },
    {
      "type": "Feature",
      "properties": {
        "@id": "node/1758552107",
        "highway": "bus_stop",
        "name": "唐家",
        "name:zh": "唐家"
      },
      "geometry": {
        "type": "Point",
        "coordinates": [
          113.5922883,
          22.3580608
        ]
      },
      "id": "node/1758552107"
    },
    {
      "type": "Feature",
      "properties": {
        "@id": "node/1758552138",
        "highway": "bus_stop",
        "name": "中大五院",
        "name:zh": "中大五院"
      },
      "geometry": {
        "type": "Point",
        "coordinates": [
          113.5686562,
          22.2989933
        ]
      },
      "id": "node/1758552138"
    },
    {
      "type": "Feature",
      "properties": {
        "@id": "node/1758552150",
        "highway": "bus_stop",
        "name": "美丽湾"
      },
      "geometry": {
        "type": "Point",
        "coordinates": [
          113.5784848,
          22.3111555
        ]
      },
      "id": "node/1758552150"
    },
    {
      "type": "Feature",
      "properties": {
        "@id": "node/1758552152",
        "highway": "bus_stop",
        "name": "白埔路口"
      },
      "geometry": {
        "type": "Point",
        "coordinates": [
          113.5900173,
          22.3540919
        ]
      },
      "id": "node/1758552152"
    },
    {
      "type": "Feature",
      "properties": {
        "@id": "node/1758552187",
        "highway": "bus_stop",
        "name": "华子石东"
      },
      "geometry": {
        "type": "Point",
        "coordinates": [
          113.5673515,
          22.294216
        ]
      },
      "id": "node/1758552187"
    },
    {
      "type": "Feature",
      "properties": {
        "@id": "node/1758552191",
        "highway": "bus_stop",
        "name": "宝莱特科技",
        "name:zh": "寶萊特科技"
      },
      "geometry": {
        "type": "Point",
        "coordinates": [
          113.5535748,
          22.3773793
        ]
      },
      "id": "node/1758552191"
    },
    {
      "type": "Feature",
      "properties": {
        "@id": "node/1758552198",
        "highway": "bus_stop",
        "name": "南方软件园",
        "name:zh": "南方軟件園"
      },
      "geometry": {
        "type": "Point",
        "coordinates": [
          113.5697784,
          22.3766237
        ]
      },
      "id": "node/1758552198"
    },
    {
      "type": "Feature",
      "properties": {
        "@id": "node/1758552223",
        "highway": "bus_stop",
        "name": "白沙(魅族)",
        "name:戈日": "白沙(經濟港)"
      },
      "geometry": {
        "type": "Point",
        "coordinates": [
          113.563541,
          22.3757244
        ]
      },
      "id": "node/1758552223"
    },
    {
      "type": "Feature",
      "properties": {
        "@id": "node/1758552225",
        "highway": "bus_stop",
        "name": "南方软件园",
        "name:zh": "南方軟件園"
      },
      "geometry": {
        "type": "Point",
        "coordinates": [
          113.569375,
          22.3768462
        ]
      },
      "id": "node/1758552225"
    },
    {
      "type": "Feature",
      "properties": {
        "@id": "node/1758552232",
        "highway": "bus_stop",
        "name": "国际赛车场",
        "name:zh": "國際賽車場"
      },
      "geometry": {
        "type": "Point",
        "coordinates": [
          113.5577456,
          22.3759184
        ]
      },
      "id": "node/1758552232"
    },
    {
      "type": "Feature",
      "properties": {
        "@id": "node/1758552234",
        "highway": "bus_stop",
        "name": "国际赛车场",
        "name:zh": "國際賽車場"
      },
      "geometry": {
        "type": "Point",
        "coordinates": [
          113.560355,
          22.3753521
        ]
      },
      "id": "node/1758552234"
    },
    {
      "type": "Feature",
      "properties": {
        "@id": "node/1764125804",
        "highway": "bus_stop",
        "name": "香炉湾"
      },
      "geometry": {
        "type": "Point",
        "coordinates": [
          113.5767092,
          22.2723567
        ]
      },
      "id": "node/1764125804"
    },
    {
      "type": "Feature",
      "properties": {
        "@id": "node/1764125908",
        "highway": "bus_stop",
        "name": "珠海大剧院"
      },
      "geometry": {
        "type": "Point",
        "coordinates": [
          113.5746269,
          22.2841478
        ]
      },
      "id": "node/1764125908"
    },
    {
      "type": "Feature",
      "properties": {
        "@id": "node/1764168625",
        "highway": "bus_stop"
      },
      "geometry": {
        "type": "Point",
        "coordinates": [
          113.5219862,
          22.2227622
        ]
      },
      "id": "node/1764168625"
    },
    {
      "type": "Feature",
      "properties": {
        "@id": "node/1764168659",
        "highway": "bus_stop"
      },
      "geometry": {
        "type": "Point",
        "coordinates": [
          113.5200229,
          22.2266306
        ]
      },
      "id": "node/1764168659"
    },
    {
      "type": "Feature",
      "properties": {
        "@id": "node/1764168717",
        "highway": "bus_stop"
      },
      "geometry": {
        "type": "Point",
        "coordinates": [
          113.5184189,
          22.2307125
        ]
      },
      "id": "node/1764168717"
    },
    {
      "type": "Feature",
      "properties": {
        "@id": "node/1764168718",
        "highway": "bus_stop"
      },
      "geometry": {
        "type": "Point",
        "coordinates": [
          113.5227426,
          22.2207634
        ]
      },
      "id": "node/1764168718"
    },
    {
      "type": "Feature",
      "properties": {
        "@id": "node/1764168847",
        "highway": "bus_stop"
      },
      "geometry": {
        "type": "Point",
        "coordinates": [
          113.5199102,
          22.2273555
        ]
      },
      "id": "node/1764168847"
    },
    {
      "type": "Feature",
      "properties": {
        "@id": "node/1764168867",
        "highway": "bus_stop"
      },
      "geometry": {
        "type": "Point",
        "coordinates": [
          113.5184752,
          22.2300347
        ]
      },
      "id": "node/1764168867"
    },
    {
      "type": "Feature",
      "properties": {
        "@id": "node/1764652813",
        "highway": "bus_stop",
        "name": "拱北",
        "name:zh": "拱北",
        "name:zh_pinyin": "huárùn wànjiā"
      },
      "geometry": {
        "type": "Point",
        "coordinates": [
          113.5478311,
          22.2248968
        ]
      },
      "id": "node/1764652813"
    },
    {
      "type": "Feature",
      "properties": {
        "@id": "node/1764652821",
        "highway": "bus_stop",
        "name": "拱北",
        "name:zh": "拱北",
        "name:zh_pinyin": "huárùn wànjiā"
      },
      "geometry": {
        "type": "Point",
        "coordinates": [
          113.5482113,
          22.2247162
        ]
      },
      "id": "node/1764652821"
    },
    {
      "type": "Feature",
      "properties": {
        "@id": "node/1766646030",
        "highway": "bus_stop",
        "name": "长沙"
      },
      "geometry": {
        "type": "Point",
        "coordinates": [
          113.5061233,
          22.2812132
        ]
      },
      "id": "node/1766646030"
    },
    {
      "type": "Feature",
      "properties": {
        "@id": "node/1767400709",
        "highway": "bus_stop",
        "name": "柠溪"
      },
      "geometry": {
        "type": "Point",
        "coordinates": [
          113.5460881,
          22.2631048
        ]
      },
      "id": "node/1767400709"
    },
    {
      "type": "Feature",
      "properties": {
        "@id": "node/1767400733",
        "highway": "bus_stop",
        "name": "香宁花园",
        "name:zh": "香宁花园",
        "name:zh_pinyin": "xiāngníng huāyuána"
      },
      "geometry": {
        "type": "Point",
        "coordinates": [
          113.5512996,
          22.2675901
        ]
      },
      "id": "node/1767400733"
    },
    {
      "type": "Feature",
      "properties": {
        "@id": "node/1767400736",
        "highway": "bus_stop",
        "name": "香宁花园",
        "name:zh": "香宁花园",
        "name:zh_pinyin": "xiāngníng huāyuána"
      },
      "geometry": {
        "type": "Point",
        "coordinates": [
          113.5527266,
          22.2692407
        ]
      },
      "id": "node/1767400736"
    },
    {
      "type": "Feature",
      "properties": {
        "@id": "node/1767400739",
        "highway": "bus_stop",
        "name": "柠溪"
      },
      "geometry": {
        "type": "Point",
        "coordinates": [
          113.5463939,
          22.2628963
        ]
      },
      "id": "node/1767400739"
    },
    {
      "type": "Feature",
      "properties": {
        "@id": "node/1767406233",
        "highway": "bus_stop",
        "name": "卓雅花园"
      },
      "geometry": {
        "type": "Point",
        "coordinates": [
          113.535416,
          22.2558787
        ]
      },
      "id": "node/1767406233"
    },
    {
      "type": "Feature",
      "properties": {
        "@id": "node/1767406254",
        "highway": "bus_stop",
        "name": "武警支队"
      },
      "geometry": {
        "type": "Point",
        "coordinates": [
          113.5393481,
          22.2568891
        ]
      },
      "id": "node/1767406254"
    },
    {
      "type": "Feature",
      "properties": {
        "@id": "node/1767406258",
        "highway": "bus_stop",
        "name": "暨大北门"
      },
      "geometry": {
        "type": "Point",
        "coordinates": [
          113.531905,
          22.2560227
        ]
      },
      "id": "node/1767406258"
    },
    {
      "type": "Feature",
      "properties": {
        "@id": "node/1767406292",
        "highway": "bus_stop",
        "name": "卓雅花园"
      },
      "geometry": {
        "type": "Point",
        "coordinates": [
          113.5357647,
          22.2561293
        ]
      },
      "id": "node/1767406292"
    },
    {
      "type": "Feature",
      "properties": {
        "@id": "node/1767406313",
        "highway": "bus_stop",
        "name": "武警支队",
        "name:zh": "武警支隊"
      },
      "geometry": {
        "type": "Point",
        "coordinates": [
          113.5400696,
          22.2569139
        ]
      },
      "id": "node/1767406313"
    },
    {
      "type": "Feature",
      "properties": {
        "@id": "node/1767406336",
        "highway": "bus_stop",
        "name": "暨大北门"
      },
      "geometry": {
        "type": "Point",
        "coordinates": [
          113.5311352,
          22.2557347
        ]
      },
      "id": "node/1767406336"
    },
    {
      "type": "Feature",
      "properties": {
        "@id": "node/1767409343",
        "highway": "bus_stop",
        "name": "前山"
      },
      "geometry": {
        "type": "Point",
        "coordinates": [
          113.5215909,
          22.2424093
        ]
      },
      "id": "node/1767409343"
    },
    {
      "type": "Feature",
      "properties": {
        "@id": "node/1767409344",
        "highway": "bus_stop",
        "name": "世邦广场"
      },
      "geometry": {
        "type": "Point",
        "coordinates": [
          113.5244431,
          22.2474781
        ]
      },
      "id": "node/1767409344"
    },
    {
      "type": "Feature",
      "properties": {
        "@id": "node/1767409345",
        "highway": "bus_stop",
        "name": "世邦广场"
      },
      "geometry": {
        "type": "Point",
        "coordinates": [
          113.5238369,
          22.2468748
        ]
      },
      "id": "node/1767409345"
    },
    {
      "type": "Feature",
      "properties": {
        "@id": "node/1767409346",
        "highway": "bus_stop",
        "name": "暨南大学"
      },
      "geometry": {
        "type": "Point",
        "coordinates": [
          113.525752,
          22.2523313
        ]
      },
      "id": "node/1767409346"
    },
    {
      "type": "Feature",
      "properties": {
        "@id": "node/1767409355",
        "highway": "bus_stop",
        "name": "前山"
      },
      "geometry": {
        "type": "Point",
        "coordinates": [
          113.5229675,
          22.2436907
        ]
      },
      "id": "node/1767409355"
    },
    {
      "type": "Feature",
      "properties": {
        "@id": "node/1767564026",
        "highway": "bus_stop"
      },
      "geometry": {
        "type": "Point",
        "coordinates": [
          113.5900174,
          22.354082
        ]
      },
      "id": "node/1767564026"
    },
    {
      "type": "Feature",
      "properties": {
        "@id": "node/1767564067",
        "highway": "bus_stop",
        "name": "梅华东",
        "name:zh": "梅华东"
      },
      "geometry": {
        "type": "Point",
        "coordinates": [
          113.5616269,
          22.2894973
        ]
      },
      "id": "node/1767564067"
    },
    {
      "type": "Feature",
      "properties": {
        "@id": "node/1767564109",
        "highway": "bus_stop",
        "name": "渔村",
        "name:zh": "渔村"
      },
      "geometry": {
        "type": "Point",
        "coordinates": [
          113.5905198,
          22.3702002
        ]
      },
      "id": "node/1767564109"
    },
    {
      "type": "Feature",
      "properties": {
        "@id": "node/1767564268",
        "highway": "bus_stop",
        "name": "渔村",
        "name:zh": "渔村"
      },
      "geometry": {
        "type": "Point",
        "coordinates": [
          113.5910463,
          22.3695848
        ]
      },
      "id": "node/1767564268"
    },
    {
      "type": "Feature",
      "properties": {
        "@id": "node/1767564323",
        "highway": "bus_stop",
        "name": "梅华东",
        "name:zh": "梅华东"
      },
      "geometry": {
        "type": "Point",
        "coordinates": [
          113.5623136,
          22.2902766
        ]
      },
      "id": "node/1767564323"
    },
    {
      "type": "Feature",
      "properties": {
        "@id": "node/1769095189",
        "highway": "bus_stop",
        "int_name": "méixī páifāng",
        "name": "梅溪牌坊 (Meixi River)",
        "name:en": "Meixi River",
        "name:zh": "梅溪牌坊",
        "name:zh_pinyin": "méixī páifāng"
      },
      "geometry": {
        "type": "Point",
        "coordinates": [
          113.5093637,
          22.2875104
        ]
      },
      "id": "node/1769095189"
    },
    {
      "type": "Feature",
      "properties": {
        "@id": "node/1769095206",
        "highway": "bus_stop",
        "name": "世邦家居世界"
      },
      "geometry": {
        "type": "Point",
        "coordinates": [
          113.5275196,
          22.2592523
        ]
      },
      "id": "node/1769095206"
    },
    {
      "type": "Feature",
      "properties": {
        "@id": "node/1769095230",
        "highway": "bus_stop",
        "name": "三台石北"
      },
      "geometry": {
        "type": "Point",
        "coordinates": [
          113.5279573,
          22.2667206
        ]
      },
      "id": "node/1769095230"
    },
    {
      "type": "Feature",
      "properties": {
        "@id": "node/1769095234",
        "highway": "bus_stop",
        "name": "一中东门"
      },
      "geometry": {
        "type": "Point",
        "coordinates": [
          113.5228648,
          22.2844355
        ]
      },
      "id": "node/1769095234"
    },
    {
      "type": "Feature",
      "properties": {
        "@id": "node/1769095253",
        "highway": "bus_stop",
        "name": "滨海楼",
        "name:zh": "濱海樓"
      },
      "geometry": {
        "type": "Point",
        "coordinates": [
          113.5606793,
          22.2738571
        ]
      },
      "id": "node/1769095253"
    },
    {
      "type": "Feature",
      "properties": {
        "@id": "node/1769095262",
        "highway": "bus_stop",
        "name": "滨海楼",
        "name:zh": "濱海樓"
      },
      "geometry": {
        "type": "Point",
        "coordinates": [
          113.5607625,
          22.274155
        ]
      },
      "id": "node/1769095262"
    },
    {
      "type": "Feature",
      "properties": {
        "@id": "node/1769095291",
        "highway": "bus_stop",
        "name": "暨南大学"
      },
      "geometry": {
        "type": "Point",
        "coordinates": [
          113.5264923,
          22.2533664
        ]
      },
      "id": "node/1769095291"
    },
    {
      "type": "Feature",
      "properties": {
        "@id": "node/1769095293",
        "highway": "bus_stop",
        "name": "农科奇观",
        "name:zh": "农科奇观",
        "name:zh_pinyin": "nóngkē qíguān"
      },
      "geometry": {
        "type": "Point",
        "coordinates": [
          113.512746,
          22.2943825
        ]
      },
      "id": "node/1769095293"
    },
    {
      "type": "Feature",
      "properties": {
        "@id": "node/1769095329",
        "highway": "bus_stop",
        "name": "体育中心西"
      },
      "geometry": {
        "type": "Point",
        "coordinates": [
          113.527,
          22.2765836
        ]
      },
      "id": "node/1769095329"
    },
    {
      "type": "Feature",
      "properties": {
        "@id": "node/1769095330",
        "highway": "bus_stop",
        "name": "农科奇观",
        "name:zh": "农科奇观",
        "name:zh_pinyin": "nóngkē qíguān"
      },
      "geometry": {
        "type": "Point",
        "coordinates": [
          113.5129847,
          22.2938339
        ]
      },
      "id": "node/1769095330"
    },
    {
      "type": "Feature",
      "properties": {
        "@id": "node/1769095357",
        "highway": "bus_stop",
        "name": "一中东门"
      },
      "geometry": {
        "type": "Point",
        "coordinates": [
          113.5225441,
          22.2853911
        ]
      },
      "id": "node/1769095357"
    },
    {
      "type": "Feature",
      "properties": {
        "@id": "node/1769095382",
        "highway": "bus_stop",
        "name": "兴业中"
      },
      "geometry": {
        "type": "Point",
        "coordinates": [
          113.5527049,
          22.2789213
        ]
      },
      "id": "node/1769095382"
    },
    {
      "type": "Feature",
      "properties": {
        "@id": "node/1769095431",
        "highway": "bus_stop",
        "name": "银桦新村",
        "name:zh": "銀樺新村"
      },
      "geometry": {
        "type": "Point",
        "coordinates": [
          113.5547016,
          22.2743599
        ]
      },
      "id": "node/1769095431"
    },
    {
      "type": "Feature",
      "properties": {
        "@id": "node/1769095441",
        "highway": "bus_stop",
        "name": "二中"
      },
      "geometry": {
        "type": "Point",
        "coordinates": [
          113.5681144,
          22.2728172
        ]
      },
      "id": "node/1769095441"
    },
    {
      "type": "Feature",
      "properties": {
        "@id": "node/1769095456",
        "highway": "bus_stop",
        "name": "新村"
      },
      "geometry": {
        "type": "Point",
        "coordinates": [
          113.5496514,
          22.2737147
        ]
      },
      "id": "node/1769095456"
    },
    {
      "type": "Feature",
      "properties": {
        "@id": "node/1769095485",
        "highway": "bus_stop",
        "name": "三台石北"
      },
      "geometry": {
        "type": "Point",
        "coordinates": [
          113.5275679,
          22.2658226
        ]
      },
      "id": "node/1769095485"
    },
    {
      "type": "Feature",
      "properties": {
        "@id": "node/1769095554",
        "highway": "bus_stop",
        "name": "体育中心西"
      },
      "geometry": {
        "type": "Point",
        "coordinates": [
          113.527018,
          22.2745521
        ]
      },
      "id": "node/1769095554"
    },
    {
      "type": "Feature",
      "properties": {
        "@id": "node/1769095586",
        "highway": "bus_stop",
        "name": "世邦家居世界"
      },
      "geometry": {
        "type": "Point",
        "coordinates": [
          113.5271387,
          22.2584106
        ]
      },
      "id": "node/1769095586"
    },
    {
      "type": "Feature",
      "properties": {
        "@id": "node/1769095599",
        "highway": "bus_stop",
        "int_name": "méixī páifāng",
        "name": "梅溪牌坊 (Meixi River)",
        "name:en": "Meixi River",
        "name:zh": "梅溪牌坊",
        "name:zh_pinyin": "méixī páifāng"
      },
      "geometry": {
        "type": "Point",
        "coordinates": [
          113.5094656,
          22.2881159
        ]
      },
      "id": "node/1769095599"
    },
    {
      "type": "Feature",
      "properties": {
        "@id": "node/1769106695",
        "highway": "bus_stop",
        "name": "南山"
      },
      "geometry": {
        "type": "Point",
        "coordinates": [
          113.5215758,
          22.2101333
        ]
      },
      "id": "node/1769106695"
    },
    {
      "type": "Feature",
      "properties": {
        "@id": "node/1769106748",
        "highway": "bus_stop",
        "name": "华发国际花园"
      },
      "geometry": {
        "type": "Point",
        "coordinates": [
          113.5348203,
          22.2163556
        ]
      },
      "id": "node/1769106748"
    },
    {
      "type": "Feature",
      "properties": {
        "@id": "node/1769106776",
        "highway": "bus_stop",
        "name": "华发国际花园"
      },
      "geometry": {
        "type": "Point",
        "coordinates": [
          113.5348854,
          22.2160241
        ]
      },
      "id": "node/1769106776"
    },
    {
      "type": "Feature",
      "properties": {
        "@id": "node/1769106905",
        "highway": "bus_stop",
        "name": "华发世纪城"
      },
      "geometry": {
        "type": "Point",
        "coordinates": [
          113.5221013,
          22.2130648
        ]
      },
      "id": "node/1769106905"
    },
    {
      "type": "Feature",
      "properties": {
        "@id": "node/1769106915",
        "highway": "bus_stop",
        "name": "南山"
      },
      "geometry": {
        "type": "Point",
        "coordinates": [
          113.5208513,
          22.2102076
        ]
      },
      "id": "node/1769106915"
    },
    {
      "type": "Feature",
      "properties": {
        "@id": "node/1769106942",
        "highway": "bus_stop",
        "name": "华发世纪城"
      },
      "geometry": {
        "type": "Point",
        "coordinates": [
          113.5225816,
          22.2136742
        ]
      },
      "id": "node/1769106942"
    },
    {
      "type": "Feature",
      "properties": {
        "@id": "node/1769110573",
        "highway": "bus_stop",
        "name": "南屏"
      },
      "geometry": {
        "type": "Point",
        "coordinates": [
          113.5045154,
          22.2232622
        ]
      },
      "id": "node/1769110573"
    },
    {
      "type": "Feature",
      "properties": {
        "@id": "node/1769110578",
        "highway": "bus_stop",
        "name": "北山工业区"
      },
      "geometry": {
        "type": "Point",
        "coordinates": [
          113.5091572,
          22.2179551
        ]
      },
      "id": "node/1769110578"
    },
    {
      "type": "Feature",
      "properties": {
        "@id": "node/1769110579",
        "highway": "bus_stop",
        "name": "福石"
      },
      "geometry": {
        "type": "Point",
        "coordinates": [
          113.5032016,
          22.2417586
        ]
      },
      "id": "node/1769110579"
    },
    {
      "type": "Feature",
      "properties": {
        "@id": "node/1769110581",
        "highway": "bus_stop",
        "name": "造贝",
        "name:zh": "造貝"
      },
      "geometry": {
        "type": "Point",
        "coordinates": [
          113.5070572,
          22.2441983
        ]
      },
      "id": "node/1769110581"
    },
    {
      "type": "Feature",
      "properties": {
        "@id": "node/1769110583",
        "highway": "bus_stop",
        "name": "威爾科技園"
      },
      "geometry": {
        "type": "Point",
        "coordinates": [
          113.5121425,
          22.2161549
        ]
      },
      "id": "node/1769110583"
    },
    {
      "type": "Feature",
      "properties": {
        "@id": "node/1769110584",
        "highway": "bus_stop",
        "name": "海纳石鸣苑",
        "name:zh": "海納石鳴苑"
      },
      "geometry": {
        "type": "Point",
        "coordinates": [
          113.520205,
          22.2565922
        ]
      },
      "id": "node/1769110584"
    },
    {
      "type": "Feature",
      "properties": {
        "@id": "node/1769110585",
        "highway": "bus_stop",
        "name": "北山工業區"
      },
      "geometry": {
        "type": "Point",
        "coordinates": [
          113.5098304,
          22.2177737
        ]
      },
      "id": "node/1769110585"
    },
    {
      "type": "Feature",
      "properties": {
        "@id": "node/1769110591",
        "highway": "bus_stop",
        "name": "南屏"
      },
      "geometry": {
        "type": "Point",
        "coordinates": [
          113.5046978,
          22.2235353
        ]
      },
      "id": "node/1769110591"
    },
    {
      "type": "Feature",
      "properties": {
        "@id": "node/1769110597",
        "highway": "bus_stop",
        "name": "造贝"
      },
      "geometry": {
        "type": "Point",
        "coordinates": [
          113.5074922,
          22.2448681
        ]
      },
      "id": "node/1769110597"
    },
    {
      "type": "Feature",
      "properties": {
        "@id": "node/1769110598",
        "highway": "bus_stop",
        "name": "莲塘"
      },
      "geometry": {
        "type": "Point",
        "coordinates": [
          113.5140924,
          22.2493797
        ]
      },
      "id": "node/1769110598"
    },
    {
      "type": "Feature",
      "properties": {
        "@id": "node/1769110606",
        "highway": "bus_stop",
        "name": "福石"
      },
      "geometry": {
        "type": "Point",
        "coordinates": [
          113.504048,
          22.2419602
        ]
      },
      "id": "node/1769110606"
    },
    {
      "type": "Feature",
      "properties": {
        "@id": "node/1769110609",
        "highway": "bus_stop",
        "name": "中臣花园"
      },
      "geometry": {
        "type": "Point",
        "coordinates": [
          113.4991474,
          22.2396269
        ]
      },
      "id": "node/1769110609"
    },
    {
      "type": "Feature",
      "properties": {
        "@id": "node/1769110614",
        "highway": "bus_stop",
        "name": "中臣花园",
        "name:zh": "中臣花園"
      },
      "geometry": {
        "type": "Point",
        "coordinates": [
          113.500113,
          22.2398479
        ]
      },
      "id": "node/1769110614"
    },
    {
      "type": "Feature",
      "properties": {
        "@id": "node/1769110619",
        "highway": "bus_stop",
        "name": "南屏大桥"
      },
      "geometry": {
        "type": "Point",
        "coordinates": [
          113.5014392,
          22.2294466
        ]
      },
      "id": "node/1769110619"
    },
    {
      "type": "Feature",
      "properties": {
        "@id": "node/1769110620",
        "highway": "bus_stop",
        "name": "威尔科技园"
      },
      "geometry": {
        "type": "Point",
        "coordinates": [
          113.5123597,
          22.2156384
        ]
      },
      "id": "node/1769110620"
    },
    {
      "type": "Feature",
      "properties": {
        "@id": "node/1769110621",
        "highway": "bus_stop",
        "name": "南屏大桥",
        "name:zh": "南屏大橋"
      },
      "geometry": {
        "type": "Point",
        "coordinates": [
          113.5016183,
          22.2297877
        ]
      },
      "id": "node/1769110621"
    },
    {
      "type": "Feature",
      "properties": {
        "@id": "node/1769117903",
        "highway": "bus_stop",
        "name": "造贝东"
      },
      "geometry": {
        "type": "Point",
        "coordinates": [
          113.5051066,
          22.2466942
        ]
      },
      "id": "node/1769117903"
    },
    {
      "type": "Feature",
      "properties": {
        "@id": "node/1769117907",
        "highway": "bus_stop",
        "name": "南沙湾"
      },
      "geometry": {
        "type": "Point",
        "coordinates": [
          113.4897258,
          22.2373322
        ]
      },
      "id": "node/1769117907"
    },
    {
      "type": "Feature",
      "properties": {
        "@id": "node/1769117918",
        "highway": "bus_stop",
        "name": "格力电器"
      },
      "geometry": {
        "type": "Point",
        "coordinates": [
          113.4934416,
          22.2379076
        ]
      },
      "id": "node/1769117918"
    },
    {
      "type": "Feature",
      "properties": {
        "@id": "node/1769117943",
        "highway": "bus_stop",
        "name": "金鸡路西",
        "name:en": "Jinji W Rd"
      },
      "geometry": {
        "type": "Point",
        "coordinates": [
          113.4813749,
          22.2366636
        ]
      },
      "id": "node/1769117943"
    },
    {
      "type": "Feature",
      "properties": {
        "@id": "node/1769117970",
        "highway": "bus_stop",
        "name": "明珠学校"
      },
      "geometry": {
        "type": "Point",
        "coordinates": [
          113.5015414,
          22.2446201
        ]
      },
      "id": "node/1769117970"
    },
    {
      "type": "Feature",
      "properties": {
        "@id": "node/1770234609",
        "highway": "bus_stop",
        "name": "上表"
      },
      "geometry": {
        "type": "Point",
        "coordinates": [
          113.3871194,
          22.0275569
        ]
      },
      "id": "node/1770234609"
    },
    {
      "type": "Feature",
      "properties": {
        "@id": "node/1770234617",
        "highway": "bus_stop",
        "name": "航展馆"
      },
      "geometry": {
        "type": "Point",
        "coordinates": [
          113.3820715,
          22.0236531
        ]
      },
      "id": "node/1770234617"
    },
    {
      "type": "Feature",
      "properties": {
        "@id": "node/1770234683",
        "highway": "bus_stop",
        "name": "航展馆"
      },
      "geometry": {
        "type": "Point",
        "coordinates": [
          113.3826219,
          22.023351
        ]
      },
      "id": "node/1770234683"
    },
    {
      "type": "Feature",
      "properties": {
        "@id": "node/1770234707",
        "highway": "bus_stop",
        "name": "上表"
      },
      "geometry": {
        "type": "Point",
        "coordinates": [
          113.3874252,
          22.0270371
        ]
      },
      "id": "node/1770234707"
    },
    {
      "type": "Feature",
      "properties": {
        "@id": "node/1771128892",
        "highway": "bus_stop",
        "name": "人民医院"
      },
      "geometry": {
        "type": "Point",
        "coordinates": [
          113.570975,
          22.2766335
        ]
      },
      "id": "node/1771128892"
    },
    {
      "type": "Feature",
      "properties": {
        "@id": "node/1771128920",
        "highway": "bus_stop",
        "name": "香洲总站",
        "name:zh": "香洲总站"
      },
      "geometry": {
        "type": "Point",
        "coordinates": [
          113.5609418,
          22.2819178
        ]
      },
      "id": "node/1771128920"
    },
    {
      "type": "Feature",
      "properties": {
        "@id": "node/1771129051",
        "highway": "bus_stop",
        "name": "南坑",
        "name:zh": "南坑"
      },
      "geometry": {
        "type": "Point",
        "coordinates": [
          113.5607882,
          22.2780333
        ]
      },
      "id": "node/1771129051"
    },
    {
      "type": "Feature",
      "properties": {
        "@id": "node/1771129174",
        "highway": "bus_stop",
        "name": "南坑",
        "name:zh": "南坑"
      },
      "geometry": {
        "type": "Point",
        "coordinates": [
          113.5606589,
          22.2785
        ]
      },
      "id": "node/1771129174"
    },
    {
      "type": "Feature",
      "properties": {
        "@id": "node/1774125701",
        "highway": "bus_stop",
        "name": "南香里(妇幼保健院)"
      },
      "geometry": {
        "type": "Point",
        "coordinates": [
          113.5560732,
          22.2720661
        ]
      },
      "id": "node/1774125701"
    },
    {
      "type": "Feature",
      "properties": {
        "@id": "node/1775893945",
        "highway": "bus_stop",
        "name": "南村"
      },
      "geometry": {
        "type": "Point",
        "coordinates": [
          113.5404235,
          22.2721755
        ]
      },
      "id": "node/1775893945"
    },
    {
      "type": "Feature",
      "properties": {
        "@id": "node/1775893948",
        "highway": "bus_stop",
        "name": "红山路南"
      },
      "geometry": {
        "type": "Point",
        "coordinates": [
          113.5358689,
          22.2731598
        ]
      },
      "id": "node/1775893948"
    },
    {
      "type": "Feature",
      "properties": {
        "@id": "node/1775893957",
        "highway": "bus_stop",
        "name": "红山路南"
      },
      "geometry": {
        "type": "Point",
        "coordinates": [
          113.5354183,
          22.2736314
        ]
      },
      "id": "node/1775893957"
    },
    {
      "type": "Feature",
      "properties": {
        "@id": "node/1775893960",
        "highway": "bus_stop",
        "name": "行政服务中心"
      },
      "geometry": {
        "type": "Point",
        "coordinates": [
          113.5347585,
          22.2790397
        ]
      },
      "id": "node/1775893960"
    },
    {
      "type": "Feature",
      "properties": {
        "@id": "node/1775893984",
        "highway": "bus_stop",
        "name": "行政服务中心"
      },
      "geometry": {
        "type": "Point",
        "coordinates": [
          113.5341685,
          22.2804469
        ]
      },
      "id": "node/1775893984"
    },
    {
      "type": "Feature",
      "properties": {
        "@id": "node/1778658472",
        "highway": "bus_stop",
        "name": "庆华国际酒店"
      },
      "geometry": {
        "type": "Point",
        "coordinates": [
          113.5700242,
          22.2349828
        ]
      },
      "id": "node/1778658472"
    },
    {
      "type": "Feature",
      "properties": {
        "@id": "node/1784535377",
        "highway": "bus_stop",
        "name": "古元美术馆"
      },
      "geometry": {
        "type": "Point",
        "coordinates": [
          113.5478646,
          22.2857774
        ]
      },
      "id": "node/1784535377"
    },
    {
      "type": "Feature",
      "properties": {
        "@id": "node/1784535509",
        "highway": "bus_stop",
        "name": "香山驿站"
      },
      "geometry": {
        "type": "Point",
        "coordinates": [
          113.5363983,
          22.2832307
        ]
      },
      "id": "node/1784535509"
    },
    {
      "type": "Feature",
      "properties": {
        "@id": "node/1784535539",
        "highway": "bus_stop",
        "name": "南村东"
      },
      "geometry": {
        "type": "Point",
        "coordinates": [
          113.543787,
          22.274187
        ]
      },
      "id": "node/1784535539"
    },
    {
      "type": "Feature",
      "properties": {
        "@id": "node/1784535543",
        "highway": "bus_stop",
        "name": "金桦花园"
      },
      "geometry": {
        "type": "Point",
        "coordinates": [
          113.5378099,
          22.2774403
        ]
      },
      "id": "node/1784535543"
    },
    {
      "type": "Feature",
      "properties": {
        "@id": "node/1784535580",
        "highway": "bus_stop",
        "name": "名街花园"
      },
      "geometry": {
        "type": "Point",
        "coordinates": [
          113.5464762,
          22.279383
        ]
      },
      "id": "node/1784535580"
    },
    {
      "type": "Feature",
      "properties": {
        "@id": "node/1784535612",
        "highway": "bus_stop",
        "name": "香山驿站"
      },
      "geometry": {
        "type": "Point",
        "coordinates": [
          113.5364404,
          22.2828583
        ]
      },
      "id": "node/1784535612"
    },
    {
      "type": "Feature",
      "properties": {
        "@id": "node/1784535644",
        "highway": "bus_stop",
        "name": "农信大厦",
        "name:zh": "農信大廈"
      },
      "geometry": {
        "type": "Point",
        "coordinates": [
          113.551482,
          22.2801814
        ]
      },
      "id": "node/1784535644"
    },
    {
      "type": "Feature",
      "properties": {
        "@id": "node/1784535645",
        "highway": "bus_stop",
        "name": "梅华中"
      },
      "geometry": {
        "type": "Point",
        "coordinates": [
          113.5295801,
          22.280971
        ]
      },
      "id": "node/1784535645"
    },
    {
      "type": "Feature",
      "properties": {
        "@id": "node/1784535686",
        "highway": "bus_stop",
        "name": "珠海一中"
      },
      "geometry": {
        "type": "Point",
        "coordinates": [
          113.521879,
          22.2795056
        ]
      },
      "id": "node/1784535686"
    },
    {
      "type": "Feature",
      "properties": {
        "@id": "node/1784535700",
        "highway": "bus_stop",
        "name": "迎宾北路口"
      },
      "geometry": {
        "type": "Point",
        "coordinates": [
          113.5437645,
          22.2847727
        ]
      },
      "id": "node/1784535700"
    },
    {
      "type": "Feature",
      "properties": {
        "@id": "node/1784535728",
        "highway": "bus_stop",
        "name": "珠海一中"
      },
      "geometry": {
        "type": "Point",
        "coordinates": [
          113.5213312,
          22.2798654
        ]
      },
      "id": "node/1784535728"
    },
    {
      "type": "Feature",
      "properties": {
        "@id": "node/1784535732",
        "highway": "bus_stop",
        "name": "蓝盾路口"
      },
      "geometry": {
        "type": "Point",
        "coordinates": [
          113.5143506,
          22.2781319
        ]
      },
      "id": "node/1784535732"
    },
    {
      "type": "Feature",
      "properties": {
        "@id": "node/1784535745",
        "highway": "bus_stop",
        "name": "梅华中"
      },
      "geometry": {
        "type": "Point",
        "coordinates": [
          113.528835,
          22.2813056
        ]
      },
      "id": "node/1784535745"
    },
    {
      "type": "Feature",
      "properties": {
        "@id": "node/1784535762",
        "highway": "bus_stop",
        "name": "金桦花园"
      },
      "geometry": {
        "type": "Point",
        "coordinates": [
          113.5387388,
          22.2778302
        ]
      },
      "id": "node/1784535762"
    },
    {
      "type": "Feature",
      "properties": {
        "@id": "node/1784535766",
        "highway": "bus_stop",
        "name": "888街"
      },
      "geometry": {
        "type": "Point",
        "coordinates": [
          113.5582788,
          22.2804841
        ]
      },
      "id": "node/1784535766"
    },
    {
      "type": "Feature",
      "properties": {
        "@id": "node/1784535781",
        "highway": "bus_stop",
        "name": "恒雅名园"
      },
      "geometry": {
        "type": "Point",
        "coordinates": [
          113.5088778,
          22.2775881
        ]
      },
      "id": "node/1784535781"
    },
    {
      "type": "Feature",
      "properties": {
        "@id": "node/1784535803",
        "highway": "bus_stop",
        "name": "名街花园"
      },
      "geometry": {
        "type": "Point",
        "coordinates": [
          113.5448919,
          22.278841
        ]
      },
      "id": "node/1784535803"
    },
    {
      "type": "Feature",
      "properties": {
        "@id": "node/1785851667",
        "highway": "bus_stop",
        "name": "公交招呼站"
      },
      "geometry": {
        "type": "Point",
        "coordinates": [
          113.6065023,
          22.3541815
        ]
      },
      "id": "node/1785851667"
    },
    {
      "type": "Feature",
      "properties": {
        "@id": "node/1785851680",
        "highway": "bus_stop",
        "name": "公交招呼站"
      },
      "geometry": {
        "type": "Point",
        "coordinates": [
          113.6208655,
          22.3559278
        ]
      },
      "id": "node/1785851680"
    },
    {
      "type": "Feature",
      "properties": {
        "@id": "node/1785851709",
        "highway": "bus_stop",
        "name": "公交招呼站"
      },
      "geometry": {
        "type": "Point",
        "coordinates": [
          113.618481,
          22.3525294
        ]
      },
      "id": "node/1785851709"
    },
    {
      "type": "Feature",
      "properties": {
        "@id": "node/1785851721",
        "highway": "bus_stop",
        "name": "格力海岸"
      },
      "geometry": {
        "type": "Point",
        "coordinates": [
          113.6128805,
          22.3510881
        ]
      },
      "id": "node/1785851721"
    },
    {
      "type": "Feature",
      "properties": {
        "@id": "node/1785851757",
        "highway": "bus_stop",
        "name": "仁恒滨海半岛"
      },
      "geometry": {
        "type": "Point",
        "coordinates": [
          113.6223622,
          22.3609213
        ]
      },
      "id": "node/1785851757"
    },
    {
      "type": "Feature",
      "properties": {
        "@id": "node/1785851803",
        "highway": "bus_stop",
        "name": "公交招呼站"
      },
      "geometry": {
        "type": "Point",
        "coordinates": [
          113.6213858,
          22.3565257
        ]
      },
      "id": "node/1785851803"
    },
    {
      "type": "Feature",
      "properties": {
        "@id": "node/1785851823",
        "highway": "bus_stop",
        "name": "半岛驿站公园"
      },
      "geometry": {
        "type": "Point",
        "coordinates": [
          113.6202378,
          22.3661252
        ]
      },
      "id": "node/1785851823"
    },
    {
      "type": "Feature",
      "properties": {
        "@id": "node/1785851824",
        "highway": "bus_stop",
        "name": "格力海岸"
      },
      "geometry": {
        "type": "Point",
        "coordinates": [
          113.6111781,
          22.3517007
        ]
      },
      "id": "node/1785851824"
    },
    {
      "type": "Feature",
      "properties": {
        "@id": "node/1785851844",
        "highway": "bus_stop",
        "name": "军港"
      },
      "geometry": {
        "type": "Point",
        "coordinates": [
          113.6098797,
          22.3717656
        ]
      },
      "id": "node/1785851844"
    },
    {
      "type": "Feature",
      "properties": {
        "@id": "node/1785851860",
        "highway": "bus_stop",
        "name": "半岛驿站公园"
      },
      "geometry": {
        "type": "Point",
        "coordinates": [
          113.6210292,
          22.3645526
        ]
      },
      "id": "node/1785851860"
    },
    {
      "type": "Feature",
      "properties": {
        "@id": "node/1785851864",
        "highway": "bus_stop",
        "name": "公交招呼站"
      },
      "geometry": {
        "type": "Point",
        "coordinates": [
          113.6058907,
          22.354747
        ]
      },
      "id": "node/1785851864"
    },
    {
      "type": "Feature",
      "properties": {
        "@id": "node/1785851872",
        "highway": "bus_stop",
        "name": "仁恒滨海半岛"
      },
      "geometry": {
        "type": "Point",
        "coordinates": [
          113.6220671,
          22.3602242
        ]
      },
      "id": "node/1785851872"
    },
    {
      "type": "Feature",
      "properties": {
        "@id": "node/1785851892",
        "highway": "bus_stop",
        "name": "公交招呼站"
      },
      "geometry": {
        "type": "Point",
        "coordinates": [
          113.6173411,
          22.3521696
        ]
      },
      "id": "node/1785851892"
    },
    {
      "type": "Feature",
      "properties": {
        "@id": "node/1785876634",
        "highway": "bus_stop",
        "name": "公交招呼站"
      },
      "geometry": {
        "type": "Point",
        "coordinates": [
          113.5987161,
          22.3550199
        ]
      },
      "id": "node/1785876634"
    },
    {
      "type": "Feature",
      "properties": {
        "@id": "node/1785876665",
        "highway": "bus_stop",
        "name": "金山软件(高新总部基地)"
      },
      "geometry": {
        "type": "Point",
        "coordinates": [
          113.5940786,
          22.352063
        ]
      },
      "id": "node/1785876665"
    },
    {
      "type": "Feature",
      "properties": {
        "@id": "node/1785876668",
        "highway": "bus_stop"
      },
      "geometry": {
        "type": "Point",
        "coordinates": [
          113.5995903,
          22.3549826
        ]
      },
      "id": "node/1785876668"
    },
    {
      "type": "Feature",
      "properties": {
        "@id": "node/1785876672",
        "highway": "bus_stop",
        "name": "金山软件(高新总部基地)"
      },
      "geometry": {
        "type": "Point",
        "coordinates": [
          113.5953768,
          22.3529286
        ]
      },
      "id": "node/1785876672"
    },
    {
      "type": "Feature",
      "properties": {
        "@id": "node/1786286666",
        "highway": "bus_stop",
        "name": "交行大厦",
        "name:zh": "交行大廈"
      },
      "geometry": {
        "type": "Point",
        "coordinates": [
          113.5740775,
          22.2504719
        ]
      },
      "id": "node/1786286666"
    },
    {
      "type": "Feature",
      "properties": {
        "@id": "node/1786286667",
        "highway": "bus_stop",
        "name": "中电大厦",
        "name:zh": "中電大廈",
        "route_ref": "2;9;12;21;22;25;40;202;206;603;605;K3;K7"
      },
      "geometry": {
        "type": "Point",
        "coordinates": [
          113.5652012,
          22.2479162
        ]
      },
      "id": "node/1786286667"
    },
    {
      "type": "Feature",
      "properties": {
        "@id": "node/1786287011",
        "highway": "bus_stop",
        "name": "珠海电台",
        "name:zh": "珠海電台"
      },
      "geometry": {
        "type": "Point",
        "coordinates": [
          113.5839197,
          22.2505014
        ]
      },
      "id": "node/1786287011"
    },
    {
      "type": "Feature",
      "properties": {
        "@id": "node/1786287250",
        "highway": "bus_stop",
        "name": "珠海电台",
        "name:zh": "珠海電台"
      },
      "geometry": {
        "type": "Point",
        "coordinates": [
          113.5820847,
          22.2521159
        ]
      },
      "id": "node/1786287250"
    },
    {
      "type": "Feature",
      "properties": {
        "@id": "node/1786287340",
        "highway": "bus_stop",
        "name": "交行大厦",
        "name:zh": "交行大廈"
      },
      "geometry": {
        "type": "Point",
        "coordinates": [
          113.5737046,
          22.2506035
        ]
      },
      "id": "node/1786287340"
    },
    {
      "type": "Feature",
      "properties": {
        "@id": "node/1792727950",
        "highway": "bus_stop",
        "name": "鉴隆玩具",
        "name:zh": "鑒隆玩具"
      },
      "geometry": {
        "type": "Point",
        "coordinates": [
          113.4737379,
          22.1706609
        ]
      },
      "id": "node/1792727950"
    },
    {
      "type": "Feature",
      "properties": {
        "@id": "node/1792727953",
        "highway": "bus_stop",
        "name": "鉴隆玩具"
      },
      "geometry": {
        "type": "Point",
        "coordinates": [
          113.4739955,
          22.1716312
        ]
      },
      "id": "node/1792727953"
    },
    {
      "type": "Feature",
      "properties": {
        "@id": "node/1792727958",
        "highway": "bus_stop",
        "name": "元盛电子"
      },
      "geometry": {
        "type": "Point",
        "coordinates": [
          113.4737485,
          22.1668964
        ]
      },
      "id": "node/1792727958"
    },
    {
      "type": "Feature",
      "properties": {
        "@id": "node/1792727961",
        "highway": "bus_stop",
        "name": "元盛电子"
      },
      "geometry": {
        "type": "Point",
        "coordinates": [
          113.4740029,
          22.168838
        ]
      },
      "id": "node/1792727961"
    },
    {
      "type": "Feature",
      "properties": {
        "@id": "node/1792727967",
        "highway": "bus_stop",
        "name": "香工路南"
      },
      "geometry": {
        "type": "Point",
        "coordinates": [
          113.473754,
          22.16228
        ]
      },
      "id": "node/1792727967"
    },
    {
      "type": "Feature",
      "properties": {
        "@id": "node/1792727968",
        "highway": "bus_stop",
        "name": "金地门道",
        "name:zh": "金地門道"
      },
      "geometry": {
        "type": "Point",
        "coordinates": [
          113.4740329,
          22.1593687
        ]
      },
      "id": "node/1792727968"
    },
    {
      "type": "Feature",
      "properties": {
        "@id": "node/1792727970",
        "highway": "bus_stop",
        "name": "金地门道"
      },
      "geometry": {
        "type": "Point",
        "coordinates": [
          113.4737522,
          22.1601549
        ]
      },
      "id": "node/1792727970"
    },
    {
      "type": "Feature",
      "properties": {
        "@id": "node/1792727981",
        "highway": "bus_stop",
        "name": "香工路北"
      },
      "geometry": {
        "type": "Point",
        "coordinates": [
          113.4737407,
          22.1749282
        ]
      },
      "id": "node/1792727981"
    },
    {
      "type": "Feature",
      "properties": {
        "@id": "node/1792727985",
        "highway": "bus_stop",
        "name": "香工路南"
      },
      "geometry": {
        "type": "Point",
        "coordinates": [
          113.474049,
          22.1627219
        ]
      },
      "id": "node/1792727985"
    },
    {
      "type": "Feature",
      "properties": {
        "@id": "node/1792739716",
        "highway": "bus_stop",
        "name": "白沙坑"
      },
      "geometry": {
        "type": "Point",
        "coordinates": [
          113.4609875,
          22.1968021
        ]
      },
      "id": "node/1792739716"
    },
    {
      "type": "Feature",
      "properties": {
        "@id": "node/1792739718",
        "highway": "bus_stop",
        "name": "香工路北"
      },
      "geometry": {
        "type": "Point",
        "coordinates": [
          113.4739785,
          22.174222
        ]
      },
      "id": "node/1792739718"
    },
    {
      "type": "Feature",
      "properties": {
        "@id": "node/1792739719",
        "highway": "bus_stop",
        "name": "南琴路南",
        "name:zh_pinyin": "NanqinLu Nan",
        "route_ref": "Z40"
      },
      "geometry": {
        "type": "Point",
        "coordinates": [
          113.505772,
          22.1735789
        ]
      },
      "id": "node/1792739719"
    },
    {
      "type": "Feature",
      "properties": {
        "@id": "node/1792739720",
        "highway": "bus_stop",
        "name": "白沙坑"
      },
      "geometry": {
        "type": "Point",
        "coordinates": [
          113.4612241,
          22.1968464
        ]
      },
      "id": "node/1792739720"
    },
    {
      "type": "Feature",
      "properties": {
        "@id": "node/1792739721",
        "highway": "bus_stop",
        "name": "成益"
      },
      "geometry": {
        "type": "Point",
        "coordinates": [
          113.461885,
          22.1883308
        ]
      },
      "id": "node/1792739721"
    },
    {
      "type": "Feature",
      "properties": {
        "@id": "node/1792739722",
        "highway": "bus_stop",
        "name": "泊湾"
      },
      "geometry": {
        "type": "Point",
        "coordinates": [
          113.4617263,
          22.1923777
        ]
      },
      "id": "node/1792739722"
    },
    {
      "type": "Feature",
      "properties": {
        "@id": "node/1792739723",
        "highway": "bus_stop"
      },
      "geometry": {
        "type": "Point",
        "coordinates": [
          113.4984333,
          22.1763006
        ]
      },
      "id": "node/1792739723"
    },
    {
      "type": "Feature",
      "properties": {
        "@id": "node/1792739730",
        "highway": "bus_stop",
        "name": "成益新村"
      },
      "geometry": {
        "type": "Point",
        "coordinates": [
          113.4624362,
          22.1853539
        ]
      },
      "id": "node/1792739730"
    },
    {
      "type": "Feature",
      "properties": {
        "@id": "node/1792739734",
        "highway": "bus_stop",
        "name": "保税区北门"
      },
      "geometry": {
        "type": "Point",
        "coordinates": [
          113.4921667,
          22.1763556
        ]
      },
      "id": "node/1792739734"
    },
    {
      "type": "Feature",
      "properties": {
        "@id": "node/1792739738",
        "highway": "bus_stop",
        "name": "桂风道路口"
      },
      "geometry": {
        "type": "Point",
        "coordinates": [
          113.4880881,
          22.1456419
        ]
      },
      "id": "node/1792739738"
    },
    {
      "type": "Feature",
      "properties": {
        "@id": "node/1792739743",
        "highway": "bus_stop",
        "name": "香工路口"
      },
      "geometry": {
        "type": "Point",
        "coordinates": [
          113.4748103,
          22.1763556
        ]
      },
      "id": "node/1792739743"
    },
    {
      "type": "Feature",
      "properties": {
        "@id": "node/1792739749",
        "highway": "bus_stop",
        "name": "南琴路南"
      },
      "geometry": {
        "type": "Point",
        "coordinates": [
          113.5063773,
          22.1731595
        ]
      },
      "id": "node/1792739749"
    },
    {
      "type": "Feature",
      "properties": {
        "@id": "node/1792739751",
        "highway": "bus_stop"
      },
      "geometry": {
        "type": "Point",
        "coordinates": [
          113.4971258,
          22.1766269
        ]
      },
      "id": "node/1792739751"
    },
    {
      "type": "Feature",
      "properties": {
        "@id": "node/1792739761",
        "highway": "bus_stop",
        "name": "洪湾派出所"
      },
      "geometry": {
        "type": "Point",
        "coordinates": [
          113.4623874,
          22.1827262
        ]
      },
      "id": "node/1792739761"
    },
    {
      "type": "Feature",
      "properties": {
        "@id": "node/1793358114",
        "highway": "bus_stop",
        "name": "湾仔旅游码头",
        "name:zh": "湾仔旅游码头",
        "name:zh_pinyin": "Wānzǐ lǚyóu mǎtou"
      },
      "geometry": {
        "type": "Point",
        "coordinates": [
          113.5280379,
          22.1935909
        ]
      },
      "id": "node/1793358114"
    },
    {
      "type": "Feature",
      "properties": {
        "@id": "node/1793358126",
        "highway": "bus_stop",
        "name": "南湾南路南"
      },
      "geometry": {
        "type": "Point",
        "coordinates": [
          113.5120884,
          22.1733374
        ]
      },
      "id": "node/1793358126"
    },
    {
      "type": "Feature",
      "properties": {
        "@id": "node/1793358273",
        "highway": "bus_stop",
        "name": "鸿景花园"
      },
      "geometry": {
        "type": "Point",
        "coordinates": [
          113.5278115,
          22.2025939
        ]
      },
      "id": "node/1793358273"
    },
    {
      "type": "Feature",
      "properties": {
        "@id": "node/1793358323",
        "highway": "bus_stop",
        "name": "南湾南路北",
        "name:zh": "南灣南路北"
      },
      "geometry": {
        "type": "Point",
        "coordinates": [
          113.5250918,
          22.1890294
        ]
      },
      "id": "node/1793358323"
    },
    {
      "type": "Feature",
      "properties": {
        "@id": "node/1793358345",
        "highway": "bus_stop",
        "name": "竹仙洞"
      },
      "geometry": {
        "type": "Point",
        "coordinates": [
          113.5161573,
          22.2135849
        ]
      },
      "id": "node/1793358345"
    },
    {
      "type": "Feature",
      "properties": {
        "@id": "node/1793358428",
        "highway": "bus_stop",
        "name": "湾仔中学"
      },
      "geometry": {
        "type": "Point",
        "coordinates": [
          113.5250033,
          22.2067983
        ]
      },
      "id": "node/1793358428"
    },
    {
      "type": "Feature",
      "properties": {
        "@id": "node/1793358499",
        "highway": "bus_stop",
        "name": "南湾南路南",
        "name:zh": "南灣南路南"
      },
      "geometry": {
        "type": "Point",
        "coordinates": [
          113.51404,
          22.1748739
        ]
      },
      "id": "node/1793358499"
    },
    {
      "type": "Feature",
      "properties": {
        "@id": "node/1793358503",
        "highway": "bus_stop",
        "name": "竹仙洞"
      },
      "geometry": {
        "type": "Point",
        "coordinates": [
          113.5163183,
          22.2131081
        ]
      },
      "id": "node/1793358503"
    },
    {
      "type": "Feature",
      "properties": {
        "@id": "node/1793358506",
        "highway": "bus_stop",
        "name": "南湾南路北",
        "name:zh": "南灣南路北"
      },
      "geometry": {
        "type": "Point",
        "coordinates": [
          113.5256287,
          22.1902464
        ]
      },
      "id": "node/1793358506"
    },
    {
      "type": "Feature",
      "properties": {
        "@id": "node/1793358510",
        "highway": "bus_stop",
        "name": "银坑村",
        "name:zh_pinyin": "Yinkeng Cun"
      },
      "geometry": {
        "type": "Point",
        "coordinates": [
          113.521967,
          22.1843155
        ]
      },
      "id": "node/1793358510"
    },
    {
      "type": "Feature",
      "properties": {
        "@id": "node/1793358542",
        "highway": "bus_stop",
        "name": "银坑村",
        "name:zh_pinyin": "Yinkeng Cun"
      },
      "geometry": {
        "type": "Point",
        "coordinates": [
          113.5209773,
          22.1810918
        ]
      },
      "id": "node/1793358542"
    },
    {
      "type": "Feature",
      "properties": {
        "@id": "node/1793358576",
        "highway": "bus_stop",
        "name": "湾仔中学"
      },
      "geometry": {
        "type": "Point",
        "coordinates": [
          113.5261676,
          22.2059016
        ]
      },
      "id": "node/1793358576"
    },
    {
      "type": "Feature",
      "properties": {
        "@id": "node/1793358577",
        "highway": "bus_stop",
        "name": "珠海保税区",
        "name:zh": "珠海保稅區"
      },
      "geometry": {
        "type": "Point",
        "coordinates": [
          113.5089841,
          22.1719764
        ]
      },
      "id": "node/1793358577"
    },
    {
      "type": "Feature",
      "properties": {
        "@id": "node/1793358579",
        "highway": "bus_stop",
        "name": "湾仔口岸"
      },
      "geometry": {
        "type": "Point",
        "coordinates": [
          113.5290078,
          22.1975453
        ]
      },
      "id": "node/1793358579"
    },
    {
      "type": "Feature",
      "properties": {
        "@id": "node/1794674617",
        "highway": "bus_stop",
        "name": "前河東路南",
        "name:zh": "前河东路南"
      },
      "geometry": {
        "type": "Point",
        "coordinates": [
          113.5296845,
          22.2205569
        ]
      },
      "id": "node/1794674617"
    },
    {
      "type": "Feature",
      "properties": {
        "@id": "node/1794674667",
        "highway": "bus_stop",
        "name": "前河東路中"
      },
      "geometry": {
        "type": "Point",
        "coordinates": [
          113.5239389,
          22.2304144
        ]
      },
      "id": "node/1794674667"
    },
    {
      "type": "Feature",
      "properties": {
        "@id": "node/1794674693",
        "highway": "bus_stop",
        "name": "前河东路南",
        "name:zh": "前河東路南"
      },
      "geometry": {
        "type": "Point",
        "coordinates": [
          113.5294333,
          22.2213425
        ]
      },
      "id": "node/1794674693"
    },
    {
      "type": "Feature",
      "properties": {
        "@id": "node/1794674717",
        "highway": "bus_stop",
        "name": "观澳平台"
      },
      "geometry": {
        "type": "Point",
        "coordinates": [
          113.5545617,
          22.222946
        ]
      },
      "id": "node/1794674717"
    },
    {
      "type": "Feature",
      "properties": {
        "@id": "node/1794674749",
        "highway": "bus_stop",
        "name": "前河东路中"
      },
      "geometry": {
        "type": "Point",
        "coordinates": [
          113.5242162,
          22.2297056
        ]
      },
      "id": "node/1794674749"
    },
    {
      "type": "Feature",
      "properties": {
        "@id": "node/1794674761",
        "highway": "bus_stop",
        "name": "观澳平台"
      },
      "geometry": {
        "type": "Point",
        "coordinates": [
          113.5554026,
          22.2238784
        ]
      },
      "id": "node/1794674761"
    },
    {
      "type": "Feature",
      "properties": {
        "@id": "node/1803223346",
        "highway": "bus_stop"
      },
      "geometry": {
        "type": "Point",
        "coordinates": [
          113.5151703,
          22.2395783
        ]
      },
      "id": "node/1803223346"
    },
    {
      "type": "Feature",
      "properties": {
        "@id": "node/1803223385",
        "highway": "bus_stop",
        "name": "荣泰河庭南门"
      },
      "geometry": {
        "type": "Point",
        "coordinates": [
          113.5076842,
          22.2397173
        ]
      },
      "id": "node/1803223385"
    },
    {
      "type": "Feature",
      "properties": {
        "@id": "node/1803223395",
        "highway": "bus_stop",
        "name": "漾湖明居西门"
      },
      "geometry": {
        "type": "Point",
        "coordinates": [
          113.5144836,
          22.2402213
        ]
      },
      "id": "node/1803223395"
    },
    {
      "type": "Feature",
      "properties": {
        "@id": "node/1803223401",
        "highway": "bus_stop"
      },
      "geometry": {
        "type": "Point",
        "coordinates": [
          113.5017784,
          22.2372768
        ]
      },
      "id": "node/1803223401"
    },
    {
      "type": "Feature",
      "properties": {
        "@id": "node/1803223420",
        "highway": "bus_stop"
      },
      "geometry": {
        "type": "Point",
        "coordinates": [
          113.5083512,
          22.2398004
        ]
      },
      "id": "node/1803223420"
    },
    {
      "type": "Feature",
      "properties": {
        "@id": "node/1803223426",
        "highway": "bus_stop"
      },
      "geometry": {
        "type": "Point",
        "coordinates": [
          113.5034149,
          22.2378173
        ]
      },
      "id": "node/1803223426"
    },
    {
      "type": "Feature",
      "properties": {
        "@id": "node/1803231413",
        "highway": "bus_stop",
        "wheelchair": "yes"
      },
      "geometry": {
        "type": "Point",
        "coordinates": [
          113.5049966,
          22.2356383
        ]
      },
      "id": "node/1803231413"
    },
    {
      "type": "Feature",
      "properties": {
        "@id": "node/1803231421",
        "highway": "bus_stop",
        "name": "南泰明湾"
      },
      "geometry": {
        "type": "Point",
        "coordinates": [
          113.4921459,
          22.2301876
        ]
      },
      "id": "node/1803231421"
    },
    {
      "type": "Feature",
      "properties": {
        "@id": "node/1803231435",
        "highway": "bus_stop",
        "name": "科技新村"
      },
      "geometry": {
        "type": "Point",
        "coordinates": [
          113.4888385,
          22.2286093
        ]
      },
      "id": "node/1803231435"
    },
    {
      "type": "Feature",
      "properties": {
        "@id": "node/1803231437",
        "highway": "bus_stop"
      },
      "geometry": {
        "type": "Point",
        "coordinates": [
          113.5148994,
          22.2353007
        ]
      },
      "id": "node/1803231437"
    },
    {
      "type": "Feature",
      "properties": {
        "@id": "node/1803231464",
        "highway": "bus_stop",
        "wheelchair": "yes"
      },
      "geometry": {
        "type": "Point",
        "coordinates": [
          113.5007967,
          22.2340492
        ]
      },
      "id": "node/1803231464"
    },
    {
      "type": "Feature",
      "properties": {
        "@id": "node/1803231469",
        "highway": "bus_stop",
        "name": "攀云购物公园"
      },
      "geometry": {
        "type": "Point",
        "coordinates": [
          113.4846081,
          22.2267917
        ]
      },
      "id": "node/1803231469"
    },
    {
      "type": "Feature",
      "properties": {
        "@id": "node/1803231472",
        "highway": "bus_stop",
        "wheelchair": "yes"
      },
      "geometry": {
        "type": "Point",
        "coordinates": [
          113.5056967,
          22.2357451
        ]
      },
      "id": "node/1803231472"
    },
    {
      "type": "Feature",
      "properties": {
        "@id": "node/1803231475",
        "highway": "bus_stop",
        "wheelchair": "yes"
      },
      "geometry": {
        "type": "Point",
        "coordinates": [
          113.500153,
          22.2339451
        ]
      },
      "id": "node/1803231475"
    },
    {
      "type": "Feature",
      "properties": {
        "@id": "node/1809159387",
        "highway": "bus_stop",
        "name": "金龙新村"
      },
      "geometry": {
        "type": "Point",
        "coordinates": [
          113.2134567,
          22.0193312
        ]
      },
      "id": "node/1809159387"
    },
    {
      "type": "Feature",
      "properties": {
        "@id": "node/1809159388",
        "highway": "bus_stop",
        "name": "南水消防队"
      },
      "geometry": {
        "type": "Point",
        "coordinates": [
          113.2005517,
          22.014459
        ]
      },
      "id": "node/1809159388"
    },
    {
      "type": "Feature",
      "properties": {
        "@id": "node/1809159419",
        "highway": "bus_stop",
        "name": "乙川精机"
      },
      "geometry": {
        "type": "Point",
        "coordinates": [
          113.1913252,
          22.0150929
        ]
      },
      "id": "node/1809159419"
    },
    {
      "type": "Feature",
      "properties": {
        "@id": "node/1809159471",
        "highway": "bus_stop",
        "name": "祥环新村"
      },
      "geometry": {
        "type": "Point",
        "coordinates": [
          113.2252539,
          22.0271147
        ]
      },
      "id": "node/1809159471"
    },
    {
      "type": "Feature",
      "properties": {
        "@id": "node/1809159480",
        "highway": "bus_stop",
        "name": "乙川精机"
      },
      "geometry": {
        "type": "Point",
        "coordinates": [
          113.1910846,
          22.0147248
        ]
      },
      "id": "node/1809159480"
    },
    {
      "type": "Feature",
      "properties": {
        "@id": "node/1809159526",
        "highway": "bus_stop",
        "name": "祥环新村"
      },
      "geometry": {
        "type": "Point",
        "coordinates": [
          113.2248925,
          22.0266559
        ]
      },
      "id": "node/1809159526"
    },
    {
      "type": "Feature",
      "properties": {
        "@id": "node/1809159539",
        "highway": "bus_stop",
        "name": "金龙新村"
      },
      "geometry": {
        "type": "Point",
        "coordinates": [
          113.2125759,
          22.0191312
        ]
      },
      "id": "node/1809159539"
    },
    {
      "type": "Feature",
      "properties": {
        "@id": "node/1814309704",
        "highway": "bus_stop",
        "name": "黄绿背(亿邦制药)"
      },
      "geometry": {
        "type": "Point",
        "coordinates": [
          113.3870501,
          22.0707798
        ]
      },
      "id": "node/1814309704"
    },